time,header_stamp_secs,header_stamp_nsecs,header_frame_id,status_header_stamp_secs,status_header_stamp_nsecs,status_header_frame_id,status_satellites_used,status_satellites_visible,status_status,status_motion_source,status_orientation_source,status_position_source,latitude,longitude,altitude,track,speed,climb,pitch,roll,dip,time,gdop,pdop,hdop,vdop,tdop,err,err_horz,err_vert,err_track,err_speed,err_climb,err_time,err_pitch,err_roll,err_dip,position_covariance_0,position_covariance_1,position_covariance_2,position_covariance_3,position_covariance_4,position_covariance_5,position_covariance_6,position_covariance_7,position_covariance_8,position_covariance_type
2026/02/13 16:07:18.615200266,108,900000000,gnss_link,0,0,,0,0,20,0,0,1,55.86728538236451,37.69145258506212,150.2069659093395,3.1394173760619775,3.0200749593431368e-12,-5.727367645192276e-14,0.0,0.0,0.0,2026/02/13 16:07:18.615200266,0.0,0.0,0.0,0.0,0.0,0.0,0.0,0.0,0.0,0.0,0.0,0.0,0.0,0.0,0.0,0.09,0.0,0.0,0.0,0.09,0.0,0.0,0.0,0.36,2
2026/02/13 16:07:18.650292317,109,0,gnss_link,0,0,,0,0,20,0,0,1,55.86728538236451,37.69145258506212,150.2069659093395,3.1394150753418053,3.0200717563510466e-12,-5.726461278196755e-14,0.0,0.0,0.0,2026/02/13 16:07:18.650292317,0.0,0.0,0.0,0.0,0.0,0.0,0.0,0.0,0.0,0.0,0.0,0.0,0.0,0.0,0.0,0.09,0.0,0.0,0.0,0.09,0.0,0.0,0.0,0.36,2
2026/02/13 16:07:18.758146870,109,100000000,gnss_link,0,0,,0,0,20,0,0,1,55.86728538236451,37.69145258506212,150.2069659093395,3.139415506535435,3.020071309556256e-12,-5.728303719326894e-14,0.0,0.0,0.0,2026/02/13 16:07:18.758146870,0.0,0.0,0.0,0.0,0.0,0.0,0.0,0.0,0.0,0.0,0.0,0.0,0.0,0.0,0.0,0.09,0.0,0.0,0.0,0.09,0.0,0.0,0.0,0.36,2
2026/02/13 16:07:18.874115238,109,200000000,gnss_link,0,0,,0,0,20,0,0,1,55.86728538236451,37.69145258506212,150.2069659093395,-3.1396402276162783,3.0391473594214536e-12,-7.615237793125853e-14,0.0,0.0,0.0,2026/02/13 16:07:18.874115238,0.0,0.0,0.0,0.0,0.0,0.0,0.0,0.0,0.0,0.0,0.0,0.0,0.0,0.0,0.0,0.09,0.0,0.0,0.0,0.09,0.0,0.0,0.0,0.36,2
2026/02/13 16:07:18.980120480,109,300000000,gnss_link,0,0,,0,0,20,0,0,1,55.86728538236451,37.69145258506212,150.2069659093395,3.1349302144477953,3.000512486098661e-12,-9.467564129748608e-14,0.0,0.0,0.0,2026/02/13 16:07:18.980120480,0.0,0.0,0.0,0.0,0.0,0.0,0.0,0.0,0.0,0.0,0.0,0.0,0.0,0.0,0.0,0.09,0.0,0.0,0.0,0.09,0.0,0.0,0.0,0.36,2
2026/02/13 16:07:19.88128514,109,400000000,gnss_link,0,0,,0,0,20,0,0,1,55.86728538236451,37.69145258506212,150.2069659093395,3.1394157262720856,3.020078519650911e-12,-5.726942854781353e-14,0.0,0.0,0.0,2026/02/13 16:07:19.88128514,0.0,0.0,0.0,0.0,0.0,0.0,0.0,0.0,0.0,0.0,0.0,0.0,0.0,0.0,0.0,0.09,0.0,0.0,0.0,0.09,0.0,0.0,0.0,0.36,2
2026/02/13 16:07:19.192572594,109,500000000,gnss_link,0,0,,0,0,20,0,0,1,55.86728538236451,37.69145258506212,150.2069659093395,-3.1396397574482906,3.0391555849238102e-12,-7.614638663005868e-14,0.0,0.0,0.0,2026/02/13 16:07:19.192572594,0.0,0.0,0.0,0.0,0.0,0.0,0.0,0.0,0.0,0.0,0.0,0.0,0.0,0.0,0.0,0.09,0.0,0.0,0.0,0.09,0.0,0.0,0.0,0.36,2
2026/02/13 16:07:19.299664572,109,600000000,gnss_link,0,0,,0,0,20,0,0,1,55.86728538236451,37.69145258506212,150.2069659093395,3.139413671592337,3.0200751949045947e-12,-5.727537760849966e-14,0.0,0.0,0.0,2026/02/13 16:07:19.299664572,0.0,0.0,0.0,0.0,0.0,0.0,0.0,0.0,0.0,0.0,0.0,0.0,0.0,0.0,0.0,0.09,0.0,0.0,0.0,0.09,0.0,0.0,0.0,0.36,2
2026/02/13 16:07:19.405718724,109,700000000,gnss_link,0,0,,0,0,20,0,0,1,55.86728538236451,37.69145258506212,150.2069659093395,3.139416261123124,3.0200762869394826e-12,-5.728688134049506e-14,0.0,0.0,0.0,2026/02/13 16:07:19.405718724,0.0,0.0,0.0,0.0,0.0,0.0,0.0,0.0,0.0,0.0,0.0,0.0,0.0,0.0,0.0,0.09,0.0,0.0,0.0,0.09,0.0,0.0,0.0,0.36,2
2026/02/13 16:07:19.509216247,109,800000000,gnss_link,0,0,,0,0,20,0,0,1,55.86728538236451,37.69145258506212,150.2069659093395,3.139415984640306,3.020075287491548e-12,-5.728978093078495e-14,0.0,0.0,0.0,2026/02/13 16:07:19.509216247,0.0,0.0,0.0,0.0,0.0,0.0,0.0,0.0,0.0,0.0,0.0,0.0,0.0,0.0,0.0,0.09,0.0,0.0,0.0,0.09,0.0,0.0,0.0,0.36,2
2026/02/13 16:07:19.610406638,109,900000000,gnss_link,0,0,,0,0,20,0,0,1,55.86728538236451,37.69145258506212,150.2069659093395,3.134929076133971,3.0005099350418467e-12,-9.468006987304606e-14,0.0,0.0,0.0,2026/02/13 16:07:19.610406638,0.0,0.0,0.0,0.0,0.0,0.0,0.0,0.0,0.0,0.0,0.0,0.0,0.0,0.0,0.0,0.09,0.0,0.0,0.0,0.09,0.0,0.0,0.0,0.36,2
2026/02/13 16:07:19.717801078,110,0,gnss_link,0,0,,0,0,20,0,0,1,55.86728538236451,37.69145258506212,150.2069659093395,3.134931341990236,3.0005045427387947e-12,-9.469794585151765e-14,0.0,0.0,0.0,2026/02/13 16:07:19.717801078,0.0,0.0,0.0,0.0,0.0,0.0,0.0,0.0,0.0,0.0,0.0,0.0,0.0,0.0,0.0,0.09,0.0,0.0,0.0,0.09,0.0,0.0,0.0,0.36,2
2026/02/13 16:07:19.823405482,110,100000000,gnss_link,0,0,,0,0,20,0,0,1,55.86728538236451,37.69145258506212,150.2069659093395,-3.127429400178534,2.9974553653691597e-12,-4.309518871287096e-14,0.0,0.0,0.0,2026/02/13 16:07:19.823405482,0.0,0.0,0.0,0.0,0.0,0.0,0.0,0.0,0.0,0.0,0.0,0.0,0.0,0.0,0.0,0.09,0.0,0.0,0.0,0.09,0.0,0.0,0.0,0.36,2
2026/02/13 16:07:19.926797622,110,200000000,gnss_link,0,0,,0,0,20,0,0,1,55.86728538236451,37.69145258506212,150.2069659093395,3.13941447706638,3.020069507205063e-12,-5.727214469109019e-14,0.0,0.0,0.0,2026/02/13 16:07:19.926797622,0.0,0.0,0.0,0.0,0.0,0.0,0.0,0.0,0.0,0.0,0.0,0.0,0.0,0.0,0.0,0.09,0.0,0.0,0.0,0.09,0.0,0.0,0.0,0.36,2
2026/02/13 16:07:20.30460898,110,300000000,gnss_link,0,0,,0,0,20,0,0,1,55.86728538236451,37.69145258506212,150.2069659093395,3.1394162053394865,3.0200744714284387e-12,-5.728475821243178e-14,0.0,0.0,0.0,2026/02/13 16:07:20.30460898,0.0,0.0,0.0,0.0,0.0,0.0,0.0,0.0,0.0,0.0,0.0,0.0,0.0,0.0,0.0,0.09,0.0,0.0,0.0,0.09,0.0,0.0,0.0,0.36,2
2026/02/13 16:07:20.134613974,110,400000000,gnss_link,0,0,,0,0,20,0,0,1,55.86728538236451,37.69145258506212,150.2069659093395,3.1394154074876117,3.0200736122215634e-12,-5.725809664017574e-14,0.0,0.0,0.0,2026/02/13 16:07:20.134613974,0.0,0.0,0.0,0.0,0.0,0.0,0.0,0.0,0.0,0.0,0.0,0.0,0.0,0.0,0.0,0.09,0.0,0.0,0.0,0.09,0.0,0.0,0.0,0.36,2
2026/02/13 16:07:20.236223364,110,500000000,gnss_link,0,0,,0,0,20,0,0,1,55.86728538236451,37.69145258506212,150.2069659093395,3.139416052945522,3.020075681931363e-12,-5.72763156602199e-14,0.0,0.0,0.0,2026/02/13 16:07:20.236223364,0.0,0.0,0.0,0.0,0.0,0.0,0.0,0.0,0.0,0.0,0.0,0.0,0.0,0.0,0.0,0.09,0.0,0.0,0.0,0.09,0.0,0.0,0.0,0.36,2
2026/02/13 16:07:20.347198939,110,600000000,gnss_link,0,0,,0,0,20,0,0,1,55.86728538236451,37.69145258506212,150.2069659093395,3.134930895166109,3.0005020439154835e-12,-9.468936729698268e-14,0.0,0.0,0.0,2026/02/13 16:07:20.347198939,0.0,0.0,0.0,0.0,0.0,0.0,0.0,0.0,0.0,0.0,0.0,0.0,0.0,0.0,0.0,0.09,0.0,0.0,0.0,0.09,0.0,0.0,0.0,0.36,2
2026/02/13 16:07:20.448558758,110,700000000,gnss_link,0,0,,0,0,20,0,0,1,55.86728538236451,37.69145258506212,150.2069659093395,3.139417269981029,3.0200765685698015e-12,-5.727414187823286e-14,0.0,0.0,0.0,2026/02/13 16:07:20.448558758,0.0,0.0,0.0,0.0,0.0,0.0,0.0,0.0,0.0,0.0,0.0,0.0,0.0,0.0,0.0,0.09,0.0,0.0,0.0,0.09,0.0,0.0,0.0,0.36,2
2026/02/13 16:07:20.553397180,110,800000000,gnss_link,0,0,,0,0,20,0,0,1,55.86728538236451,37.69145258506212,150.2069659093395,-3.13472760944987,2.9649353790222944e-12,-4.705511205290043e-14,0.0,0.0,0.0,2026/02/13 16:07:20.553397180,0.0,0.0,0.0,0.0,0.0,0.0,0.0,0.0,0.0,0.0,0.0,0.0,0.0,0.0,0.0,0.09,0.0,0.0,0.0,0.09,0.0,0.0,0.0,0.36,2
2026/02/13 16:07:20.654924288,110,900000000,gnss_link,0,0,,0,0,20,0,0,1,55.86728538236451,37.69145258506212,150.2069659093395,3.1394174181398804,3.0200691166342366e-12,-5.72671231870441e-14,0.0,0.0,0.0,2026/02/13 16:07:20.654924288,0.0,0.0,0.0,0.0,0.0,0.0,0.0,0.0,0.0,0.0,0.0,0.0,0.0,0.0,0.0,0.09,0.0,0.0,0.0,0.09,0.0,0.0,0.0,0.36,2
2026/02/13 16:07:20.759571129,111,0,gnss_link,0,0,,0,0,20,0,0,1,55.86728538236451,37.69145258506212,150.2069659093395,-3.134728611592964,2.9649332619175516e-12,-4.705467854550227e-14,0.0,0.0,0.0,2026/02/13 16:07:20.759571129,0.0,0.0,0.0,0.0,0.0,0.0,0.0,0.0,0.0,0.0,0.0,0.0,0.0,0.0,0.0,0.09,0.0,0.0,0.0,0.09,0.0,0.0,0.0,0.36,2
2026/02/13 16:07:20.866061658,111,100000000,gnss_link,0,0,,0,0,20,0,0,1,55.86728538236451,37.69145258506212,150.2069659093395,3.1394138005750443,3.020072540039704e-12,-5.727930242036224e-14,0.0,0.0,0.0,2026/02/13 16:07:20.866061658,0.0,0.0,0.0,0.0,0.0,0.0,0.0,0.0,0.0,0.0,0.0,0.0,0.0,0.0,0.0,0.09,0.0,0.0,0.0,0.09,0.0,0.0,0.0,0.36,2
2026/02/13 16:07:20.972475943,111,200000000,gnss_link,0,0,,0,0,20,0,0,1,55.86728538236451,37.69145258506212,150.2069659093395,-3.134728822590422,2.96493527478362e-12,-4.70503280324981e-14,0.0,0.0,0.0,2026/02/13 16:07:20.972475943,0.0,0.0,0.0,0.0,0.0,0.0,0.0,0.0,0.0,0.0,0.0,0.0,0.0,0.0,0.0,0.09,0.0,0.0,0.0,0.09,0.0,0.0,0.0,0.36,2
2026/02/13 16:07:21.75932023,111,300000000,gnss_link,0,0,,0,0,20,0,0,1,55.86728538236451,37.69145258506212,150.2069659093395,3.1394141363087074,3.020067341682445e-12,-5.72752348407523e-14,0.0,0.0,0.0,2026/02/13 16:07:21.75932023,0.0,0.0,0.0,0.0,0.0,0.0,0.0,0.0,0.0,0.0,0.0,0.0,0.0,0.0,0.0,0.09,0.0,0.0,0.0,0.09,0.0,0.0,0.0,0.36,2
2026/02/13 16:07:21.179128059,111,400000000,gnss_link,0,0,,0,0,20,0,0,1,55.86728538236451,37.69145258506212,150.2069659093395,-3.1347295259983827,2.9649361595215245e-12,-4.705170427536882e-14,0.0,0.0,0.0,2026/02/13 16:07:21.179128059,0.0,0.0,0.0,0.0,0.0,0.0,0.0,0.0,0.0,0.0,0.0,0.0,0.0,0.0,0.0,0.09,0.0,0.0,0.0,0.09,0.0,0.0,0.0,0.36,2
2026/02/13 16:07:21.313844257,111,500000000,gnss_link,0,0,,0,0,20,0,0,1,55.86728538236451,37.69145258506212,150.2069659093395,-3.1347274893926516,2.9649328347288213e-12,-4.7061609719886604e-14,0.0,0.0,0.0,2026/02/13 16:07:21.313844257,0.0,0.0,0.0,0.0,0.0,0.0,0.0,0.0,0.0,0.0,0.0,0.0,0.0,0.0,0.0,0.09,0.0,0.0,0.0,0.09,0.0,0.0,0.0,0.36,2
2026/02/13 16:07:21.422545597,111,600000000,gnss_link,0,0,,0,0,20,0,0,1,55.86728538236451,37.69145258506212,150.2069659093395,-3.1274291478184133,2.9974556178158466e-12,-4.3095991282687696e-14,0.0,0.0,0.0,2026/02/13 16:07:21.422545597,0.0,0.0,0.0,0.0,0.0,0.0,0.0,0.0,0.0,0.0,0.0,0.0,0.0,0.0,0.0,0.09,0.0,0.0,0.0,0.09,0.0,0.0,0.0,0.36,2
2026/02/13 16:07:21.529005580,111,700000000,gnss_link,0,0,,0,0,20,0,0,1,55.86728538236451,37.69145258506212,150.2069659093395,-3.134728675123005,2.964934193426971e-12,-4.7070486646858454e-14,0.0,0.0,0.0,2026/02/13 16:07:21.529005580,0.0,0.0,0.0,0.0,0.0,0.0,0.0,0.0,0.0,0.0,0.0,0.0,0.0,0.0,0.0,0.09,0.0,0.0,0.0,0.09,0.0,0.0,0.0,0.36,2
2026/02/13 16:07:21.637949333,111,800000000,gnss_link,0,0,,0,0,20,0,0,1,55.86728538236451,37.69145258506212,150.2069659093395,3.1349326838504674,3.000506722694724e-12,-9.468128912343902e-14,0.0,0.0,0.0,2026/02/13 16:07:21.637949333,0.0,0.0,0.0,0.0,0.0,0.0,0.0,0.0,0.0,0.0,0.0,0.0,0.0,0.0,0.0,0.09,0.0,0.0,0.0,0.09,0.0,0.0,0.0,0.36,2
2026/02/13 16:07:21.749158679,111,900000000,gnss_link,0,0,,0,0,20,0,0,1,55.86728538236451,37.69145258506212,150.2069659093395,3.1394156405105926,3.020076701871015e-12,-5.727248287543592e-14,0.0,0.0,0.0,2026/02/13 16:07:21.749158679,0.0,0.0,0.0,0.0,0.0,0.0,0.0,0.0,0.0,0.0,0.0,0.0,0.0,0.0,0.0,0.09,0.0,0.0,0.0,0.09,0.0,0.0,0.0,0.36,2
2026/02/13 16:07:21.856915233,112,0,gnss_link,0,0,,0,0,20,0,0,1,55.86728538236451,37.69145258506212,150.2069659093395,3.1394157415422153,3.0200720919852524e-12,-5.726702873135265e-14,0.0,0.0,0.0,2026/02/13 16:07:21.856915233,0.0,0.0,0.0,0.0,0.0,0.0,0.0,0.0,0.0,0.0,0.0,0.0,0.0,0.0,0.0,0.09,0.0,0.0,0.0,0.09,0.0,0.0,0.0,0.36,2
2026/02/13 16:07:21.965701001,112,100000000,gnss_link,0,0,,0,0,20,0,0,1,55.86728538236451,37.69145258506212,150.2069659093395,3.139414479207925,3.0200758523532685e-12,-5.727307528350261e-14,0.0,0.0,0.0,2026/02/13 16:07:21.965701001,0.0,0.0,0.0,0.0,0.0,0.0,0.0,0.0,0.0,0.0,0.0,0.0,0.0,0.0,0.0,0.09,0.0,0.0,0.0,0.09,0.0,0.0,0.0,0.36,2
2026/02/13 16:07:22.73590541,112,200000000,gnss_link,0,0,,0,0,20,0,0,1,55.86728538236451,37.69145258506212,150.2069659093395,3.1349306305414646,3.0005049908327047e-12,-9.470204266121526e-14,0.0,0.0,0.0,2026/02/13 16:07:22.73590541,0.0,0.0,0.0,0.0,0.0,0.0,0.0,0.0,0.0,0.0,0.0,0.0,0.0,0.0,0.0,0.09,0.0,0.0,0.0,0.09,0.0,0.0,0.0,0.36,2
2026/02/13 16:07:22.177232114,112,300000000,gnss_link,0,0,,0,0,20,0,0,1,55.86728538236451,37.69145258506212,150.2069659093395,3.1394166269363954,3.020076509977294e-12,-5.727898826194385e-14,0.0,0.0,0.0,2026/02/13 16:07:22.177232114,0.0,0.0,0.0,0.0,0.0,0.0,0.0,0.0,0.0,0.0,0.0,0.0,0.0,0.0,0.0,0.09,0.0,0.0,0.0,0.09,0.0,0.0,0.0,0.36,2
2026/02/13 16:07:22.284773891,112,400000000,gnss_link,0,0,,0,0,20,0,0,1,55.86728538236451,37.69145258506212,150.2069659093395,-3.134728735776203,2.964934548991198e-12,-4.7067520703396106e-14,0.0,0.0,0.0,2026/02/13 16:07:22.284773891,0.0,0.0,0.0,0.0,0.0,0.0,0.0,0.0,0.0,0.0,0.0,0.0,0.0,0.0,0.0,0.09,0.0,0.0,0.0,0.09,0.0,0.0,0.0,0.36,2
2026/02/13 16:07:22.397845759,112,500000000,gnss_link,0,0,,0,0,20,0,0,1,55.86728538236451,37.69145258506212,150.2069659093395,3.139417339581262,3.0200760468543557e-12,-5.727272573672282e-14,0.0,0.0,0.0,2026/02/13 16:07:22.397845759,0.0,0.0,0.0,0.0,0.0,0.0,0.0,0.0,0.0,0.0,0.0,0.0,0.0,0.0,0.0,0.09,0.0,0.0,0.0,0.09,0.0,0.0,0.0,0.36,2
2026/02/13 16:07:22.502287859,112,600000000,gnss_link,0,0,,0,0,20,0,0,1,55.86728538236451,37.69145258506212,150.2069659093395,3.134930205397473,3.0005072504408466e-12,-9.470049311947173e-14,0.0,0.0,0.0,2026/02/13 16:07:22.502287859,0.0,0.0,0.0,0.0,0.0,0.0,0.0,0.0,0.0,0.0,0.0,0.0,0.0,0.0,0.0,0.09,0.0,0.0,0.0,0.09,0.0,0.0,0.0,0.36,2
2026/02/13 16:07:22.613487670,112,700000000,gnss_link,0,0,,0,0,20,0,0,1,55.86728538236451,37.69145258506212,150.2069659093395,3.139413622375241,3.02007121403936e-12,-5.725878150900226e-14,0.0,0.0,0.0,2026/02/13 16:07:22.613487670,0.0,0.0,0.0,0.0,0.0,0.0,0.0,0.0,0.0,0.0,0.0,0.0,0.0,0.0,0.0,0.09,0.0,0.0,0.0,0.09,0.0,0.0,0.0,0.36,2
2026/02/13 16:07:22.719788040,112,800000000,gnss_link,0,0,,0,0,20,0,0,1,55.86728538236451,37.69145258506212,150.2069659093395,3.13941544719014,3.020077018450052e-12,-5.728207051861594e-14,0.0,0.0,0.0,2026/02/13 16:07:22.719788040,0.0,0.0,0.0,0.0,0.0,0.0,0.0,0.0,0.0,0.0,0.0,0.0,0.0,0.0,0.0,0.09,0.0,0.0,0.0,0.09,0.0,0.0,0.0,0.36,2
2026/02/13 16:07:22.835675888,112,900000000,gnss_link,0,0,,0,0,20,0,0,1,55.86728538236451,37.69145258506212,150.2069659093395,-3.134730118186345,2.9649362477542377e-12,-4.705227213709821e-14,0.0,0.0,0.0,2026/02/13 16:07:22.835675888,0.0,0.0,0.0,0.0,0.0,0.0,0.0,0.0,0.0,0.0,0.0,0.0,0.0,0.0,0.0,0.09,0.0,0.0,0.0,0.09,0.0,0.0,0.0,0.36,2
2026/02/13 16:07:22.938389560,113,0,gnss_link,0,0,,0,0,20,0,0,1,55.86728538236451,37.69145258506212,150.2069659093395,3.139417210265988,3.0200781451319007e-12,-5.728229256322199e-14,0.0,0.0,0.0,2026/02/13 16:07:22.938389560,0.0,0.0,0.0,0.0,0.0,0.0,0.0,0.0,0.0,0.0,0.0,0.0,0.0,0.0,0.0,0.09,0.0,0.0,0.0,0.09,0.0,0.0,0.0,0.36,2
2026/02/13 16:07:23.42120089,113,100000000,gnss_link,0,0,,0,0,20,0,0,1,55.86728538236451,37.69145258506212,150.2069659093395,-3.1396394118516207,3.039151906095701e-12,-7.613423333085605e-14,0.0,0.0,0.0,2026/02/13 16:07:23.42120089,0.0,0.0,0.0,0.0,0.0,0.0,0.0,0.0,0.0,0.0,0.0,0.0,0.0,0.0,0.0,0.09,0.0,0.0,0.0,0.09,0.0,0.0,0.0,0.36,2
2026/02/13 16:07:23.148931335,113,200000000,gnss_link,0,0,,0,0,20,0,0,1,55.86728538236451,37.69145258506212,150.2069659093395,-3.1347301302576094,2.9649327160082086e-12,-4.706110005812954e-14,0.0,0.0,0.0,2026/02/13 16:07:23.148931335,0.0,0.0,0.0,0.0,0.0,0.0,0.0,0.0,0.0,0.0,0.0,0.0,0.0,0.0,0.0,0.09,0.0,0.0,0.0,0.09,0.0,0.0,0.0,0.36,2
2026/02/13 16:07:23.262083492,113,300000000,gnss_link,0,0,,0,0,20,0,0,1,55.86728538236451,37.69145258506212,150.2069659093395,-3.1347281995248273,2.964934930334436e-12,-4.704798233941384e-14,0.0,0.0,0.0,2026/02/13 16:07:23.262083492,0.0,0.0,0.0,0.0,0.0,0.0,0.0,0.0,0.0,0.0,0.0,0.0,0.0,0.0,0.0,0.09,0.0,0.0,0.0,0.09,0.0,0.0,0.0,0.36,2
2026/02/13 16:07:23.373722287,113,400000000,gnss_link,0,0,,0,0,20,0,0,1,55.86728538236451,37.69145258506212,150.2069659093395,-3.1347288743554627,2.9649326364078557e-12,-4.705902506864345e-14,0.0,0.0,0.0,2026/02/13 16:07:23.373722287,0.0,0.0,0.0,0.0,0.0,0.0,0.0,0.0,0.0,0.0,0.0,0.0,0.0,0.0,0.0,0.09,0.0,0.0,0.0,0.09,0.0,0.0,0.0,0.36,2
2026/02/13 16:07:23.482877386,113,500000000,gnss_link,0,0,,0,0,20,0,0,1,55.86728538236451,37.69145258506212,150.2069659093395,3.1394161665956446,3.0200742208580333e-12,-5.726474887102571e-14,0.0,0.0,0.0,2026/02/13 16:07:23.482877386,0.0,0.0,0.0,0.0,0.0,0.0,0.0,0.0,0.0,0.0,0.0,0.0,0.0,0.0,0.0,0.09,0.0,0.0,0.0,0.09,0.0,0.0,0.0,0.36,2
2026/02/13 16:07:23.679237441,113,600000000,gnss_link,0,0,,0,0,20,0,0,1,55.86728538236451,37.69145258506212,150.2069659093395,-3.1396395560583676,3.0391496366560668e-12,-7.614665733365282e-14,0.0,0.0,0.0,2026/02/13 16:07:23.679237441,0.0,0.0,0.0,0.0,0.0,0.0,0.0,0.0,0.0,0.0,0.0,0.0,0.0,0.0,0.0,0.09,0.0,0.0,0.0,0.09,0.0,0.0,0.0,0.36,2
2026/02/13 16:07:23.794736485,113,700000000,gnss_link,0,0,,0,0,20,0,0,1,55.86728538236451,37.69145258506212,150.2069659093395,3.134932632171307,3.0005067746362856e-12,-9.468685194794582e-14,0.0,0.0,0.0,2026/02/13 16:07:23.794736485,0.0,0.0,0.0,0.0,0.0,0.0,0.0,0.0,0.0,0.0,0.0,0.0,0.0,0.0,0.0,0.09,0.0,0.0,0.0,0.09,0.0,0.0,0.0,0.36,2
2026/02/13 16:07:23.902881936,113,800000000,gnss_link,0,0,,0,0,20,0,0,1,55.86728538236451,37.69145258506212,150.2069659093395,-3.1347293877064693,2.964929599830528e-12,-4.706280824033435e-14,0.0,0.0,0.0,2026/02/13 16:07:23.902881936,0.0,0.0,0.0,0.0,0.0,0.0,0.0,0.0,0.0,0.0,0.0,0.0,0.0,0.0,0.0,0.09,0.0,0.0,0.0,0.09,0.0,0.0,0.0,0.36,2
2026/02/13 16:07:24.33191214,113,900000000,gnss_link,0,0,,0,0,20,0,0,1,55.86728538236451,37.69145258506212,150.2069659093395,-3.12743042805388,2.9974585587938237e-12,-4.309694243157156e-14,0.0,0.0,0.0,2026/02/13 16:07:24.33191214,0.0,0.0,0.0,0.0,0.0,0.0,0.0,0.0,0.0,0.0,0.0,0.0,0.0,0.0,0.0,0.09,0.0,0.0,0.0,0.09,0.0,0.0,0.0,0.36,2
2026/02/13 16:07:24.139466213,114,0,gnss_link,0,0,,0,0,20,0,0,1,55.86728538236451,37.69145258506212,150.2069659093395,3.1400853590991202,3.0084521202109047e-12,-1.0978329852876732e-13,0.0,0.0,0.0,2026/02/13 16:07:24.139466213,0.0,0.0,0.0,0.0,0.0,0.0,0.0,0.0,0.0,0.0,0.0,0.0,0.0,0.0,0.0,0.09,0.0,0.0,0.0,0.09,0.0,0.0,0.0,0.36,2
2026/02/13 16:07:24.243050519,114,100000000,gnss_link,0,0,,0,0,20,0,0,1,55.86728538236451,37.69145258506212,150.2069659093395,-3.1347265774949933,2.9649351748453953e-12,-4.704589355887627e-14,0.0,0.0,0.0,2026/02/13 16:07:24.243050519,0.0,0.0,0.0,0.0,0.0,0.0,0.0,0.0,0.0,0.0,0.0,0.0,0.0,0.0,0.0,0.09,0.0,0.0,0.0,0.09,0.0,0.0,0.0,0.36,2
2026/02/13 16:07:24.350420559,114,200000000,gnss_link,0,0,,0,0,20,0,0,1,55.86728538236451,37.69145258506212,150.2069659093395,-3.1347279878601584,2.964934030387924e-12,-4.705950489315768e-14,0.0,0.0,0.0,2026/02/13 16:07:24.350420559,0.0,0.0,0.0,0.0,0.0,0.0,0.0,0.0,0.0,0.0,0.0,0.0,0.0,0.0,0.0,0.09,0.0,0.0,0.0,0.09,0.0,0.0,0.0,0.36,2
2026/02/13 16:07:24.454176287,114,300000000,gnss_link,0,0,,0,0,20,0,0,1,55.86728538236451,37.69145258506212,150.2069659093395,-3.1347277792740775,2.964936151036275e-12,-4.7069356214306634e-14,0.0,0.0,0.0,2026/02/13 16:07:24.454176287,0.0,0.0,0.0,0.0,0.0,0.0,0.0,0.0,0.0,0.0,0.0,0.0,0.0,0.0,0.0,0.09,0.0,0.0,0.0,0.09,0.0,0.0,0.0,0.36,2
2026/02/13 16:07:24.556460927,114,400000000,gnss_link,0,0,,0,0,20,0,0,1,55.86728538236451,37.69145258506212,150.2069659093395,-3.1347293267586394,2.964935164748648e-12,-4.704606737816898e-14,0.0,0.0,0.0,2026/02/13 16:07:24.556460927,0.0,0.0,0.0,0.0,0.0,0.0,0.0,0.0,0.0,0.0,0.0,0.0,0.0,0.0,0.0,0.09,0.0,0.0,0.0,0.09,0.0,0.0,0.0,0.36,2
2026/02/13 16:07:24.662946406,114,500000000,gnss_link,0,0,,0,0,20,0,0,1,55.86728538236451,37.69145258506212,150.2069659093395,3.1394140806920463,3.0200742122191016e-12,-5.727777534328725e-14,0.0,0.0,0.0,2026/02/13 16:07:24.662946406,0.0,0.0,0.0,0.0,0.0,0.0,0.0,0.0,0.0,0.0,0.0,0.0,0.0,0.0,0.0,0.09,0.0,0.0,0.0,0.09,0.0,0.0,0.0,0.36,2
2026/02/13 16:07:24.767873201,114,600000000,gnss_link,0,0,,0,0,20,0,0,1,55.86728538236451,37.69145258506212,150.2069659093395,3.139413653798211,3.020071565199094e-12,-5.726927424415587e-14,0.0,0.0,0.0,2026/02/13 16:07:24.767873201,0.0,0.0,0.0,0.0,0.0,0.0,0.0,0.0,0.0,0.0,0.0,0.0,0.0,0.0,0.0,0.09,0.0,0.0,0.0,0.09,0.0,0.0,0.0,0.36,2
2026/02/13 16:07:24.898834705,114,700000000,gnss_link,0,0,,0,0,20,0,0,1,55.86728538236451,37.69145258506212,150.2069659093395,3.139416214539468,3.020074107103884e-12,-5.72771326282401e-14,0.0,0.0,0.0,2026/02/13 16:07:24.898834705,0.0,0.0,0.0,0.0,0.0,0.0,0.0,0.0,0.0,0.0,0.0,0.0,0.0,0.0,0.0,0.09,0.0,0.0,0.0,0.09,0.0,0.0,0.0,0.36,2
2026/02/13 16:07:25.12752770,114,800000000,gnss_link,0,0,,0,0,20,0,0,1,55.86728538236451,37.69145258506212,150.2069659093395,-3.134727508577384,2.9649384708511573e-12,-4.704594325870656e-14,0.0,0.0,0.0,2026/02/13 16:07:25.12752770,0.0,0.0,0.0,0.0,0.0,0.0,0.0,0.0,0.0,0.0,0.0,0.0,0.0,0.0,0.0,0.09,0.0,0.0,0.0,0.09,0.0,0.0,0.0,0.36,2
2026/02/13 16:07:25.120986064,114,900000000,gnss_link,0,0,,0,0,20,0,0,1,55.86728538236451,37.69145258506212,150.2069659093395,-3.1347270186067773,2.9649382387553414e-12,-4.7062601634773616e-14,0.0,0.0,0.0,2026/02/13 16:07:25.120986064,0.0,0.0,0.0,0.0,0.0,0.0,0.0,0.0,0.0,0.0,0.0,0.0,0.0,0.0,0.0,0.09,0.0,0.0,0.0,0.09,0.0,0.0,0.0,0.36,2
2026/02/13 16:07:25.230687335,115,0,gnss_link,0,0,,0,0,20,0,0,1,55.86728538236451,37.69145258506212,150.2069659093395,3.1394143265992773,3.020079348344183e-12,-5.727176071005464e-14,0.0,0.0,0.0,2026/02/13 16:07:25.230687335,0.0,0.0,0.0,0.0,0.0,0.0,0.0,0.0,0.0,0.0,0.0,0.0,0.0,0.0,0.0,0.09,0.0,0.0,0.0,0.09,0.0,0.0,0.0,0.36,2
2026/02/13 16:07:25.338684847,115,100000000,gnss_link,0,0,,0,0,20,0,0,1,55.86728538236451,37.69145258506212,150.2069659093395,3.139415200970589,3.020076094165832e-12,-5.727027717453579e-14,0.0,0.0,0.0,2026/02/13 16:07:25.338684847,0.0,0.0,0.0,0.0,0.0,0.0,0.0,0.0,0.0,0.0,0.0,0.0,0.0,0.0,0.0,0.09,0.0,0.0,0.0,0.09,0.0,0.0,0.0,0.36,2
2026/02/13 16:07:25.444132902,115,200000000,gnss_link,0,0,,0,0,20,0,0,1,55.86728538236451,37.69145258506212,150.2069659093395,-3.139638929848497,3.039152737348865e-12,-7.614170018785027e-14,0.0,0.0,0.0,2026/02/13 16:07:25.444132902,0.0,0.0,0.0,0.0,0.0,0.0,0.0,0.0,0.0,0.0,0.0,0.0,0.0,0.0,0.0,0.09,0.0,0.0,0.0,0.09,0.0,0.0,0.0,0.36,2
2026/02/13 16:07:25.656393243,115,300000000,gnss_link,0,0,,0,0,20,0,0,1,55.86728538236451,37.69145258506212,150.2069659093395,-3.1396408099109925,3.039151661722778e-12,-7.61371295384349e-14,0.0,0.0,0.0,2026/02/13 16:07:25.656393243,0.0,0.0,0.0,0.0,0.0,0.0,0.0,0.0,0.0,0.0,0.0,0.0,0.0,0.0,0.0,0.09,0.0,0.0,0.0,0.09,0.0,0.0,0.0,0.36,2
2026/02/13 16:07:25.778742460,115,400000000,gnss_link,0,0,,0,0,20,0,0,1,55.86728538236451,37.69145258506212,150.2069659093395,-3.13472841756568,2.964933202569531e-12,-4.706520276588679e-14,0.0,0.0,0.0,2026/02/13 16:07:25.778742460,0.0,0.0,0.0,0.0,0.0,0.0,0.0,0.0,0.0,0.0,0.0,0.0,0.0,0.0,0.0,0.09,0.0,0.0,0.0,0.09,0.0,0.0,0.0,0.36,2
2026/02/13 16:07:25.895383237,115,500000000,gnss_link,0,0,,0,0,20,0,0,1,55.86728538236451,37.69145258506212,150.2069659093395,-3.1347294826168937,2.9649320744879836e-12,-4.705853535620611e-14,0.0,0.0,0.0,2026/02/13 16:07:25.895383237,0.0,0.0,0.0,0.0,0.0,0.0,0.0,0.0,0.0,0.0,0.0,0.0,0.0,0.0,0.0,0.09,0.0,0.0,0.0,0.09,0.0,0.0,0.0,0.36,2
2026/02/13 16:07:26.3798795,115,600000000,gnss_link,0,0,,0,0,20,0,0,1,55.86728538236451,37.69145258506212,150.2069659093395,-3.1347284661031587,2.9649365624981717e-12,-4.706989397858437e-14,0.0,0.0,0.0,2026/02/13 16:07:26.3798795,0.0,0.0,0.0,0.0,0.0,0.0,0.0,0.0,0.0,0.0,0.0,0.0,0.0,0.0,0.0,0.09,0.0,0.0,0.0,0.09,0.0,0.0,0.0,0.36,2
2026/02/13 16:07:26.108140135,115,700000000,gnss_link,0,0,,0,0,20,0,0,1,55.86728538236451,37.69145258506212,150.2069659093395,-3.139641474421869,3.0391548440652057e-12,-7.61470910145254e-14,0.0,0.0,0.0,2026/02/13 16:07:26.108140135,0.0,0.0,0.0,0.0,0.0,0.0,0.0,0.0,0.0,0.0,0.0,0.0,0.0,0.0,0.0,0.09,0.0,0.0,0.0,0.09,0.0,0.0,0.0,0.36,2
2026/02/13 16:07:26.223342826,115,800000000,gnss_link,0,0,,0,0,20,0,0,1,55.86728538236451,37.69145258506212,150.2069659093395,3.1394142387673662,3.020078269948494e-12,-5.725776556820336e-14,0.0,0.0,0.0,2026/02/13 16:07:26.223342826,0.0,0.0,0.0,0.0,0.0,0.0,0.0,0.0,0.0,0.0,0.0,0.0,0.0,0.0,0.0,0.09,0.0,0.0,0.0,0.09,0.0,0.0,0.0,0.36,2
2026/02/13 16:07:26.331621502,115,900000000,gnss_link,0,0,,0,0,20,0,0,1,55.86728538236451,37.69145258506212,150.2069659093395,3.1394167957997134,3.020081813129343e-12,-5.72836450403821e-14,0.0,0.0,0.0,2026/02/13 16:07:26.331621502,0.0,0.0,0.0,0.0,0.0,0.0,0.0,0.0,0.0,0.0,0.0,0.0,0.0,0.0,0.0,0.09,0.0,0.0,0.0,0.09,0.0,0.0,0.0,0.36,2
2026/02/13 16:07:26.435931116,116,0,gnss_link,0,0,,0,0,20,0,0,1,55.86728538236451,37.69145258506212,150.2069659093395,3.139416505044763,3.0200791709986888e-12,-5.727485120666386e-14,0.0,0.0,0.0,2026/02/13 16:07:26.435931116,0.0,0.0,0.0,0.0,0.0,0.0,0.0,0.0,0.0,0.0,0.0,0.0,0.0,0.0,0.0,0.09,0.0,0.0,0.0,0.09,0.0,0.0,0.0,0.36,2
2026/02/13 16:07:26.542992273,116,100000000,gnss_link,0,0,,0,0,20,0,0,1,55.867285382348406,37.69145256802031,150.20691077411175,-3.1400316862898907,0.07396898187006287,-0.0010686294695268538,0.0,0.0,0.0,2026/02/13 16:07:26.542992273,0.0,0.0,0.0,0.0,0.0,0.0,0.0,0.0,0.0,0.0,0.0,0.0,0.0,0.0,0.0,0.09,0.0,0.0,0.0,0.09,0.0,0.0,0.0,0.36,2
2026/02/13 16:07:26.646548084,116,200000000,gnss_link,0,0,,0,0,20,0,0,1,55.8672853819701,37.69145214270258,150.20689485780895,-3.1400316857551167,0.37676944446740773,0.012592941783352183,0.0,0.0,0.0,2026/02/13 16:07:26.646548084,0.0,0.0,0.0,0.0,0.0,0.0,0.0,0.0,0.0,0.0,0.0,0.0,0.0,0.0,0.0,0.09,0.0,0.0,0.0,0.09,0.0,0.0,0.0,0.36,2
2026/02/13 16:07:26.756186166,116,300000000,gnss_link,0,0,,0,0,20,0,0,1,55.867285381355906,37.69145144395969,150.20696338266134,-3.140031686396632,0.48388602968693256,0.004515571589694291,0.0,0.0,0.0,2026/02/13 16:07:26.756186166,0.0,0.0,0.0,0.0,0.0,0.0,0.0,0.0,0.0,0.0,0.0,0.0,0.0,0.0,0.0,0.09,0.0,0.0,0.0,0.09,0.0,0.0,0.0,0.36,2
2026/02/13 16:07:26.855052672,116,400000000,gnss_link,0,0,,0,0,20,0,0,1,55.86728538062346,37.69145061064515,150.2069730553776,-3.140031629077705,0.5329229368121718,-0.0009131580698175782,0.0,0.0,0.0,2026/02/13 16:07:26.855052672,0.0,0.0,0.0,0.0,0.0,0.0,0.0,0.0,0.0,0.0,0.0,0.0,0.0,0.0,0.0,0.09,0.0,0.0,0.0,0.09,0.0,0.0,0.0,0.36,2
2026/02/13 16:07:26.966975606,116,500000000,gnss_link,0,0,,0,0,20,0,0,1,55.867285379873415,37.6914497573937,150.2069960422814,-3.140031628293513,0.5409653112557218,0.0014864647010374248,0.0,0.0,0.0,2026/02/13 16:07:26.966975606,0.0,0.0,0.0,0.0,0.0,0.0,0.0,0.0,0.0,0.0,0.0,0.0,0.0,0.0,0.0,0.09,0.0,0.0,0.0,0.09,0.0,0.0,0.0,0.36,2
2026/02/13 16:07:27.69975383,116,600000000,gnss_link,0,0,,0,0,20,0,0,1,55.867285379085466,37.69144886102035,150.20696472655982,-3.140031628705934,0.581904133117151,-0.002896677109286608,0.0,0.0,0.0,2026/02/13 16:07:27.69975383,0.0,0.0,0.0,0.0,0.0,0.0,0.0,0.0,0.0,0.0,0.0,0.0,0.0,0.0,0.0,0.09,0.0,0.0,0.0,0.09,0.0,0.0,0.0,0.36,2
2026/02/13 16:07:27.174854776,116,700000000,gnss_link,0,0,,0,0,20,0,0,1,55.86728537825757,37.69144791921728,150.206856014207,-3.1400316281819167,0.5898440093268061,-0.03284259800144322,0.0,0.0,0.0,2026/02/13 16:07:27.174854776,0.0,0.0,0.0,0.0,0.0,0.0,0.0,0.0,0.0,0.0,0.0,0.0,0.0,0.0,0.0,0.09,0.0,0.0,0.0,0.09,0.0,0.0,0.0,0.36,2
2026/02/13 16:07:27.274295098,116,800000000,gnss_link,0,0,,0,0,20,0,0,1,55.86728537742957,37.69144697733373,150.20667572692037,-3.1400344319498554,0.589286951819927,-0.0250669059586809,0.0,0.0,0.0,2026/02/13 16:07:27.274295098,0.0,0.0,0.0,0.0,0.0,0.0,0.0,0.0,0.0,0.0,0.0,0.0,0.0,0.0,0.0,0.09,0.0,0.0,0.0,0.09,0.0,0.0,0.0,0.36,2
2026/02/13 16:07:27.377800945,116,900000000,gnss_link,0,0,,0,0,20,0,0,1,55.86728537660166,37.69144603549698,150.20692346151918,-3.1400316313122807,0.5896801007236525,0.018868613146348693,0.0,0.0,0.0,2026/02/13 16:07:27.377800945,0.0,0.0,0.0,0.0,0.0,0.0,0.0,0.0,0.0,0.0,0.0,0.0,0.0,0.0,0.0,0.09,0.0,0.0,0.0,0.09,0.0,0.0,0.0,0.36,2
2026/02/13 16:07:27.480187040,117,0,gnss_link,0,0,,0,0,20,0,0,1,55.86728537577368,37.69144509361315,150.2069125045091,-3.140031631042812,0.5896484411449414,0.019310905621998515,0.0,0.0,0.0,2026/02/13 16:07:27.480187040,0.0,0.0,0.0,0.0,0.0,0.0,0.0,0.0,0.0,0.0,0.0,0.0,0.0,0.0,0.0,0.09,0.0,0.0,0.0,0.09,0.0,0.0,0.0,0.36,2
2026/02/13 16:07:27.584865045,117,100000000,gnss_link,0,0,,0,0,20,0,0,1,55.86728537494565,37.69144415168168,150.20699442829937,-3.140031631246285,0.5899198485022095,0.008475906261895037,0.0,0.0,0.0,2026/02/13 16:07:27.584865045,0.0,0.0,0.0,0.0,0.0,0.0,0.0,0.0,0.0,0.0,0.0,0.0,0.0,0.0,0.0,0.09,0.0,0.0,0.0,0.09,0.0,0.0,0.0,0.36,2
2026/02/13 16:07:27.695051774,117,200000000,gnss_link,0,0,,0,0,20,0,0,1,55.86728537411755,37.69144320968314,150.2069611409679,-3.14003163134402,0.5898984829666392,-0.004139798723727473,0.0,0.0,0.0,2026/02/13 16:07:27.695051774,0.0,0.0,0.0,0.0,0.0,0.0,0.0,0.0,0.0,0.0,0.0,0.0,0.0,0.0,0.0,0.09,0.0,0.0,0.0,0.09,0.0,0.0,0.0,0.36,2
2026/02/13 16:07:27.799264876,117,300000000,gnss_link,0,0,,0,0,20,0,0,1,55.867285373289555,37.69144226780144,150.20696822181344,-3.14003163115769,0.5898853106094415,0.0018641122268849332,0.0,0.0,0.0,2026/02/13 16:07:27.799264876,0.0,0.0,0.0,0.0,0.0,0.0,0.0,0.0,0.0,0.0,0.0,0.0,0.0,0.0,0.0,0.09,0.0,0.0,0.0,0.09,0.0,0.0,0.0,0.36,2
2026/02/13 16:07:27.906745287,117,400000000,gnss_link,0,0,,0,0,20,0,0,1,55.86728537246143,37.69144132580856,150.2066418407485,-3.140031639855325,0.5891978825969375,-0.022346232784149007,0.0,0.0,0.0,2026/02/13 16:07:27.906745287,0.0,0.0,0.0,0.0,0.0,0.0,0.0,0.0,0.0,0.0,0.0,0.0,0.0,0.0,0.0,0.09,0.0,0.0,0.0,0.09,0.0,0.0,0.0,0.36,2
2026/02/13 16:07:28.5374577,117,500000000,gnss_link,0,0,,0,0,20,0,0,1,55.86728537163344,37.691440383948255,150.20692836679518,-3.1400316319337094,0.5899567224972057,-0.02568735751541388,0.0,0.0,0.0,2026/02/13 16:07:28.5374577,0.0,0.0,0.0,0.0,0.0,0.0,0.0,0.0,0.0,0.0,0.0,0.0,0.0,0.0,0.0,0.09,0.0,0.0,0.0,0.09,0.0,0.0,0.0,0.36,2
2026/02/13 16:07:28.111805095,117,600000000,gnss_link,0,0,,0,0,20,0,0,1,55.86728537079736,37.691439432906186,150.20693853497505,-3.140031631934767,0.6067158497248537,0.017671816998482547,0.0,0.0,0.0,2026/02/13 16:07:28.111805095,0.0,0.0,0.0,0.0,0.0,0.0,0.0,0.0,0.0,0.0,0.0,0.0,0.0,0.0,0.0,0.09,0.0,0.0,0.0,0.09,0.0,0.0,0.0,0.36,2
2026/02/13 16:07:28.215588234,117,700000000,gnss_link,0,0,,0,0,20,0,0,1,55.86728536993067,37.691438447038365,150.2069932539016,-3.1400316321663904,0.6309786184986637,-0.0038703994391559127,0.0,0.0,0.0,2026/02/13 16:07:28.215588234,0.0,0.0,0.0,0.0,0.0,0.0,0.0,0.0,0.0,0.0,0.0,0.0,0.0,0.0,0.0,0.09,0.0,0.0,0.0,0.09,0.0,0.0,0.0,0.36,2
2026/02/13 16:07:28.320895708,117,800000000,gnss_link,0,0,,0,0,20,0,0,1,55.86728536904513,37.69143743975572,150.20695310644805,-3.140031632119523,0.6307749306911374,0.012319744645174869,0.0,0.0,0.0,2026/02/13 16:07:28.320895708,0.0,0.0,0.0,0.0,0.0,0.0,0.0,0.0,0.0,0.0,0.0,0.0,0.0,0.0,0.0,0.09,0.0,0.0,0.0,0.09,0.0,0.0,0.0,0.36,2
2026/02/13 16:07:28.425755302,117,900000000,gnss_link,0,0,,0,0,20,0,0,1,55.86728536815847,37.69143643119256,150.2069000089541,-3.140031632034575,0.6385565333353396,0.023665289536187427,0.0,0.0,0.0,2026/02/13 16:07:28.425755302,0.0,0.0,0.0,0.0,0.0,0.0,0.0,0.0,0.0,0.0,0.0,0.0,0.0,0.0,0.0,0.09,0.0,0.0,0.0,0.09,0.0,0.0,0.0,0.36,2
2026/02/13 16:07:28.529418258,118,0,gnss_link,0,0,,0,0,20,0,0,1,55.86728536725653,37.69143540527164,150.20697571057826,-3.140031632104706,0.6559240017221711,-0.0035781863389936844,0.0,0.0,0.0,2026/02/13 16:07:28.529418258,0.0,0.0,0.0,0.0,0.0,0.0,0.0,0.0,0.0,0.0,0.0,0.0,0.0,0.0,0.0,0.09,0.0,0.0,0.0,0.09,0.0,0.0,0.0,0.36,2
2026/02/13 16:07:28.636738057,118,100000000,gnss_link,0,0,,0,0,20,0,0,1,55.86728536631564,37.69143433505259,150.20699369627982,-3.1400316319870036,0.6719483327875602,0.0009745121558137902,0.0,0.0,0.0,2026/02/13 16:07:28.636738057,0.0,0.0,0.0,0.0,0.0,0.0,0.0,0.0,0.0,0.0,0.0,0.0,0.0,0.0,0.0,0.09,0.0,0.0,0.0,0.09,0.0,0.0,0.0,0.36,2
2026/02/13 16:07:28.738856695,118,200000000,gnss_link,0,0,,0,0,20,0,0,1,55.86728536537245,37.691433262250854,150.2070077965036,-3.140031631634327,0.6719912532172688,0.0007828363036847316,0.0,0.0,0.0,2026/02/13 16:07:28.738856695,0.0,0.0,0.0,0.0,0.0,0.0,0.0,0.0,0.0,0.0,0.0,0.0,0.0,0.0,0.0,0.09,0.0,0.0,0.0,0.09,0.0,0.0,0.0,0.36,2
2026/02/13 16:07:28.849105182,118,300000000,gnss_link,0,0,,0,0,20,0,0,1,55.867285364429144,37.69143218929951,150.20654839929193,-3.1400316317229753,0.6711288409337444,-0.05209715938335588,0.0,0.0,0.0,2026/02/13 16:07:28.849105182,0.0,0.0,0.0,0.0,0.0,0.0,0.0,0.0,0.0,0.0,0.0,0.0,0.0,0.0,0.0,0.09,0.0,0.0,0.0,0.09,0.0,0.0,0.0,0.36,2
2026/02/13 16:07:28.961435587,118,400000000,gnss_link,0,0,,0,0,20,0,0,1,55.86728536348594,37.69143111646795,150.2069659093395,-3.140031632287981,0.6718262706215771,0.007344416114232933,0.0,0.0,0.0,2026/02/13 16:07:28.961435587,0.0,0.0,0.0,0.0,0.0,0.0,0.0,0.0,0.0,0.0,0.0,0.0,0.0,0.0,0.0,0.09,0.0,0.0,0.0,0.09,0.0,0.0,0.0,0.36,2
2026/02/13 16:07:29.81105595,118,500000000,gnss_link,0,0,,0,0,20,0,0,1,55.8672853625438,37.69143004366966,150.20698107033968,-3.140028735591882,0.6719360067704425,-0.003363607507523299,0.0,0.0,0.0,2026/02/13 16:07:29.81105595,0.0,0.0,0.0,0.0,0.0,0.0,0.0,0.0,0.0,0.0,0.0,0.0,0.0,0.0,0.0,0.09,0.0,0.0,0.0,0.09,0.0,0.0,0.0,0.36,2
2026/02/13 16:07:29.195562950,118,600000000,gnss_link,0,0,,0,0,20,0,0,1,55.867285361600366,37.691428970873375,150.20698339492083,-3.1400314865847467,0.6718423202184469,0.013284823609910247,0.0,0.0,0.0,2026/02/13 16:07:29.195562950,0.0,0.0,0.0,0.0,0.0,0.0,0.0,0.0,0.0,0.0,0.0,0.0,0.0,0.0,0.0,0.09,0.0,0.0,0.0,0.09,0.0,0.0,0.0,0.36,2
2026/02/13 16:07:29.315262645,118,700000000,gnss_link,0,0,,0,0,20,0,0,1,55.86728536065694,37.69142789794692,150.20673650689423,-3.1400314861530765,0.6713394275045897,-0.02602746743873423,0.0,0.0,0.0,2026/02/13 16:07:29.315262645,0.0,0.0,0.0,0.0,0.0,0.0,0.0,0.0,0.0,0.0,0.0,0.0,0.0,0.0,0.0,0.09,0.0,0.0,0.0,0.09,0.0,0.0,0.0,0.36,2
2026/02/13 16:07:29.440295374,118,800000000,gnss_link,0,0,,0,0,20,0,0,1,55.867285359713705,37.691426825219516,150.2069404218346,-3.1400314867849053,0.6716946740601913,0.01639821940008587,0.0,0.0,0.0,2026/02/13 16:07:29.440295374,0.0,0.0,0.0,0.0,0.0,0.0,0.0,0.0,0.0,0.0,0.0,0.0,0.0,0.0,0.0,0.09,0.0,0.0,0.0,0.09,0.0,0.0,0.0,0.36,2
2026/02/13 16:07:29.552576299,118,900000000,gnss_link,0,0,,0,0,20,0,0,1,55.86728535877034,37.69142575236866,150.20697058085352,-3.1400314865705234,0.6719338708469337,-0.008625306336313083,0.0,0.0,0.0,2026/02/13 16:07:29.552576299,0.0,0.0,0.0,0.0,0.0,0.0,0.0,0.0,0.0,0.0,0.0,0.0,0.0,0.0,0.0,0.09,0.0,0.0,0.0,0.09,0.0,0.0,0.0,0.36,2
2026/02/13 16:07:29.674898183,119,0,gnss_link,0,0,,0,0,20,0,0,1,55.867285357827015,37.69142467958026,150.2069420106709,-3.1400314879155444,0.6716810796287169,0.01934925561220256,0.0,0.0,0.0,2026/02/13 16:07:29.674898183,0.0,0.0,0.0,0.0,0.0,0.0,0.0,0.0,0.0,0.0,0.0,0.0,0.0,0.0,0.0,0.09,0.0,0.0,0.0,0.09,0.0,0.0,0.0,0.36,2
2026/02/13 16:07:29.803330566,119,100000000,gnss_link,0,0,,0,0,20,0,0,1,55.86728535688358,37.69142360666212,150.20686428807676,-3.1400314870218993,0.6716675216497734,-0.01730105051743504,0.0,0.0,0.0,2026/02/13 16:07:29.803330566,0.0,0.0,0.0,0.0,0.0,0.0,0.0,0.0,0.0,0.0,0.0,0.0,0.0,0.0,0.0,0.09,0.0,0.0,0.0,0.09,0.0,0.0,0.0,0.36,2
2026/02/13 16:07:29.930943857,119,200000000,gnss_link,0,0,,0,0,20,0,0,1,55.867285355940254,37.69142253390456,150.20689832046628,-3.140031487498571,0.6715201407017799,0.02432709970823503,0.0,0.0,0.0,2026/02/13 16:07:29.930943857,0.0,0.0,0.0,0.0,0.0,0.0,0.0,0.0,0.0,0.0,0.0,0.0,0.0,0.0,0.0,0.09,0.0,0.0,0.0,0.09,0.0,0.0,0.0,0.36,2
2026/02/13 16:07:30.68582349,119,300000000,gnss_link,0,0,,0,0,20,0,0,1,55.86728535499689,37.691421461092816,150.2069363920018,-3.1400314873050594,0.6718517236441636,-0.012207236677215802,0.0,0.0,0.0,2026/02/13 16:07:30.68582349,0.0,0.0,0.0,0.0,0.0,0.0,0.0,0.0,0.0,0.0,0.0,0.0,0.0,0.0,0.0,0.09,0.0,0.0,0.0,0.09,0.0,0.0,0.0,0.36,2
2026/02/13 16:07:30.202786225,119,400000000,gnss_link,0,0,,0,0,20,0,0,1,55.86728535405358,37.6914203883541,150.2069422658533,-3.140031487418796,0.6716777460677844,0.01979417308963688,0.0,0.0,0.0,2026/02/13 16:07:30.202786225,0.0,0.0,0.0,0.0,0.0,0.0,0.0,0.0,0.0,0.0,0.0,0.0,0.0,0.0,0.0,0.09,0.0,0.0,0.0,0.09,0.0,0.0,0.0,0.36,2
2026/02/13 16:07:30.336823977,119,500000000,gnss_link,0,0,,0,0,20,0,0,1,55.86728535311018,37.69141931553044,150.20695971976966,-3.140031487195449,0.6719074078670768,-0.009987726408442863,0.0,0.0,0.0,2026/02/13 16:07:30.336823977,0.0,0.0,0.0,0.0,0.0,0.0,0.0,0.0,0.0,0.0,0.0,0.0,0.0,0.0,0.0,0.09,0.0,0.0,0.0,0.09,0.0,0.0,0.0,0.36,2
2026/02/13 16:07:30.480170120,119,600000000,gnss_link,0,0,,0,0,20,0,0,1,55.8672853521668,37.69141824276284,150.20673476811498,-3.1400314877347046,0.670961813738834,0.035776076542074785,0.0,0.0,0.0,2026/02/13 16:07:30.480170120,0.0,0.0,0.0,0.0,0.0,0.0,0.0,0.0,0.0,0.0,0.0,0.0,0.0,0.0,0.0,0.09,0.0,0.0,0.0,0.09,0.0,0.0,0.0,0.36,2
2026/02/13 16:07:30.607960991,119,700000000,gnss_link,0,0,,0,0,20,0,0,1,55.867285351223266,37.69141716979235,150.20697979163378,-3.140031487987875,0.6719378686345878,-0.005174355915739243,0.0,0.0,0.0,2026/02/13 16:07:30.607960991,0.0,0.0,0.0,0.0,0.0,0.0,0.0,0.0,0.0,0.0,0.0,0.0,0.0,0.0,0.0,0.09,0.0,0.0,0.0,0.09,0.0,0.0,0.0,0.36,2
2026/02/13 16:07:30.745076623,119,800000000,gnss_link,0,0,,0,0,20,0,0,1,55.8672853502799,37.69141609704546,150.20693413820118,-3.1400314877771476,0.6716642321707668,0.017746004695503963,0.0,0.0,0.0,2026/02/13 16:07:30.745076623,0.0,0.0,0.0,0.0,0.0,0.0,0.0,0.0,0.0,0.0,0.0,0.0,0.0,0.0,0.0,0.09,0.0,0.0,0.0,0.09,0.0,0.0,0.0,0.36,2
2026/02/13 16:07:30.887287965,119,900000000,gnss_link,0,0,,0,0,20,0,0,1,55.867285349336555,37.691415024314026,150.20700308587402,-3.1400314875934523,0.6719792986598104,-0.0005883353773820808,0.0,0.0,0.0,2026/02/13 16:07:30.887287965,0.0,0.0,0.0,0.0,0.0,0.0,0.0,0.0,0.0,0.0,0.0,0.0,0.0,0.0,0.0,0.09,0.0,0.0,0.0,0.09,0.0,0.0,0.0,0.36,2
2026/02/13 16:07:31.44464521,120,0,gnss_link,0,0,,0,0,20,0,0,1,55.86728534839303,37.69141395141454,150.20651657972485,-3.1400314871395896,0.671046803517488,-0.053696749154567854,0.0,0.0,0.0,2026/02/13 16:07:31.44464521,0.0,0.0,0.0,0.0,0.0,0.0,0.0,0.0,0.0,0.0,0.0,0.0,0.0,0.0,0.0,0.09,0.0,0.0,0.0,0.09,0.0,0.0,0.0,0.36,2
2026/02/13 16:07:31.190850802,120,100000000,gnss_link,0,0,,0,0,20,0,0,1,55.86728534744953,37.6914128785237,150.20698036439717,-3.1400314885282246,0.671877277808707,0.005043633104004756,0.0,0.0,0.0,2026/02/13 16:07:31.190850802,0.0,0.0,0.0,0.0,0.0,0.0,0.0,0.0,0.0,0.0,0.0,0.0,0.0,0.0,0.0,0.09,0.0,0.0,0.0,0.09,0.0,0.0,0.0,0.36,2
2026/02/13 16:07:31.350313595,120,200000000,gnss_link,0,0,,0,0,20,0,0,1,55.86728534650608,37.691411805718765,150.2069842396304,-3.1400314884267333,0.6719051628753017,-0.008695224270996131,0.0,0.0,0.0,2026/02/13 16:07:31.350313595,0.0,0.0,0.0,0.0,0.0,0.0,0.0,0.0,0.0,0.0,0.0,0.0,0.0,0.0,0.0,0.09,0.0,0.0,0.0,0.09,0.0,0.0,0.0,0.36,2
2026/02/13 16:07:31.504750789,120,300000000,gnss_link,0,0,,0,0,20,0,0,1,55.86728534556264,37.69141073293944,150.20698298793286,-3.1400314880538533,0.6718867387775248,-0.007497651492459142,0.0,0.0,0.0,2026/02/13 16:07:31.504750789,0.0,0.0,0.0,0.0,0.0,0.0,0.0,0.0,0.0,0.0,0.0,0.0,0.0,0.0,0.0,0.09,0.0,0.0,0.0,0.09,0.0,0.0,0.0,0.36,2
2026/02/13 16:07:31.656969734,120,400000000,gnss_link,0,0,,0,0,20,0,0,1,55.86728534461902,37.691409659954815,150.2066981419921,-3.140031487959288,0.6712019029511037,-0.023231625933418407,0.0,0.0,0.0,2026/02/13 16:07:31.656969734,0.0,0.0,0.0,0.0,0.0,0.0,0.0,0.0,0.0,0.0,0.0,0.0,0.0,0.0,0.0,0.09,0.0,0.0,0.0,0.09,0.0,0.0,0.0,0.36,2
2026/02/13 16:07:31.816641569,120,500000000,gnss_link,0,0,,0,0,20,0,0,1,55.867285343675604,37.691408587207476,150.20696463715285,-3.1400314887202163,0.6717757598642822,-0.0028608068077731297,0.0,0.0,0.0,2026/02/13 16:07:31.816641569,0.0,0.0,0.0,0.0,0.0,0.0,0.0,0.0,0.0,0.0,0.0,0.0,0.0,0.0,0.0,0.09,0.0,0.0,0.0,0.09,0.0,0.0,0.0,0.36,2
2026/02/13 16:07:31.972788755,120,600000000,gnss_link,0,0,,0,0,20,0,0,1,55.867285342732124,37.691407514416255,150.20701445546,-3.1400314874076325,0.6719902132458564,0.002768401133535494,0.0,0.0,0.0,2026/02/13 16:07:31.972788755,0.0,0.0,0.0,0.0,0.0,0.0,0.0,0.0,0.0,0.0,0.0,0.0,0.0,0.0,0.0,0.09,0.0,0.0,0.0,0.09,0.0,0.0,0.0,0.36,2
2026/02/13 16:07:32.129697599,120,700000000,gnss_link,0,0,,0,0,20,0,0,1,55.86728534178863,37.69140644161772,150.2069418830797,-3.140031486828942,0.6716495188002127,0.001952384114516878,0.0,0.0,0.0,2026/02/13 16:07:32.129697599,0.0,0.0,0.0,0.0,0.0,0.0,0.0,0.0,0.0,0.0,0.0,0.0,0.0,0.0,0.0,0.09,0.0,0.0,0.0,0.09,0.0,0.0,0.0,0.36,2
2026/02/13 16:07:32.287299291,120,800000000,gnss_link,0,0,,0,0,20,0,0,1,55.867285340844944,37.69140536860485,150.20685661956668,-3.1400314871738364,0.6716615645308953,-0.021208018586173993,0.0,0.0,0.0,2026/02/13 16:07:32.287299291,0.0,0.0,0.0,0.0,0.0,0.0,0.0,0.0,0.0,0.0,0.0,0.0,0.0,0.0,0.0,0.09,0.0,0.0,0.0,0.09,0.0,0.0,0.0,0.36,2
2026/02/13 16:07:32.457175890,120,900000000,gnss_link,0,0,,0,0,20,0,0,1,55.86728533990159,37.69140429597168,150.20693138614297,-3.1400314873486384,0.6716267701442774,0.021933270860562595,0.0,0.0,0.0,2026/02/13 16:07:32.457175890,0.0,0.0,0.0,0.0,0.0,0.0,0.0,0.0,0.0,0.0,0.0,0.0,0.0,0.0,0.0,0.09,0.0,0.0,0.0,0.09,0.0,0.0,0.0,0.36,2
2026/02/13 16:07:32.626151712,121,0,gnss_link,0,0,,0,0,20,0,0,1,55.867285338958006,37.691403223103606,150.2069952590391,-3.1400314873345243,0.6719499027226957,-0.0002926600746390707,0.0,0.0,0.0,2026/02/13 16:07:32.626151712,0.0,0.0,0.0,0.0,0.0,0.0,0.0,0.0,0.0,0.0,0.0,0.0,0.0,0.0,0.0,0.09,0.0,0.0,0.0,0.09,0.0,0.0,0.0,0.36,2
2026/02/13 16:07:32.793135120,121,100000000,gnss_link,0,0,,0,0,20,0,0,1,55.86728533800742,37.69140215031091,150.20686126407236,-3.1398004676178126,0.6714640906210787,0.026707728291822597,0.0,0.0,0.0,2026/02/13 16:07:32.793135120,0.0,0.0,0.0,0.0,0.0,0.0,0.0,0.0,0.0,0.0,0.0,0.0,0.0,0.0,0.0,0.09,0.0,0.0,0.0,0.09,0.0,0.0,0.0,0.36,2
2026/02/13 16:07:32.956991473,121,200000000,gnss_link,0,0,,0,0,20,0,0,1,55.86728533707115,37.69140107743501,150.20695089641958,-3.1400316763299,0.6718863011088653,-0.011959450620335082,0.0,0.0,0.0,2026/02/13 16:07:32.956991473,0.0,0.0,0.0,0.0,0.0,0.0,0.0,0.0,0.0,0.0,0.0,0.0,0.0,0.0,0.0,0.09,0.0,0.0,0.0,0.09,0.0,0.0,0.0,0.36,2
2026/02/13 16:07:33.117993650,121,300000000,gnss_link,0,0,,0,0,20,0,0,1,55.86728533612776,37.69140000467611,150.2068119868636,-3.140031677793894,0.6712096714523078,0.031792882770544456,0.0,0.0,0.0,2026/02/13 16:07:33.117993650,0.0,0.0,0.0,0.0,0.0,0.0,0.0,0.0,0.0,0.0,0.0,0.0,0.0,0.0,0.0,0.09,0.0,0.0,0.0,0.09,0.0,0.0,0.0,0.36,2
2026/02/13 16:07:33.282883305,121,400000000,gnss_link,0,0,,0,0,20,0,0,1,55.867285335184334,37.691398931886965,150.2069697007537,-3.14003167618563,0.6718918554745208,-0.0036232671558918167,0.0,0.0,0.0,2026/02/13 16:07:33.282883305,0.0,0.0,0.0,0.0,0.0,0.0,0.0,0.0,0.0,0.0,0.0,0.0,0.0,0.0,0.0,0.09,0.0,0.0,0.0,0.09,0.0,0.0,0.0,0.36,2
2026/02/13 16:07:33.447312846,121,500000000,gnss_link,0,0,,0,0,20,0,0,1,55.86728533424088,37.69139785910129,150.2068005250767,-3.140031676317482,0.671166933435913,0.03307896727822367,0.0,0.0,0.0,2026/02/13 16:07:33.447312846,0.0,0.0,0.0,0.0,0.0,0.0,0.0,0.0,0.0,0.0,0.0,0.0,0.0,0.0,0.0,0.09,0.0,0.0,0.0,0.09,0.0,0.0,0.0,0.36,2
2026/02/13 16:07:33.605706215,121,600000000,gnss_link,0,0,,0,0,20,0,0,1,55.867285333297374,37.69139678624791,150.20697750430554,-3.1400316762272347,0.6719961100509522,-0.01845597516094036,0.0,0.0,0.0,2026/02/13 16:07:33.605706215,0.0,0.0,0.0,0.0,0.0,0.0,0.0,0.0,0.0,0.0,0.0,0.0,0.0,0.0,0.0,0.09,0.0,0.0,0.0,0.09,0.0,0.0,0.0,0.36,2
2026/02/13 16:07:33.765508607,121,700000000,gnss_link,0,0,,0,0,20,0,0,1,55.86728533235388,37.691395713433316,150.2065791543573,-3.140031675521154,0.6711644350471319,-0.048461853894706475,0.0,0.0,0.0,2026/02/13 16:07:33.765508607,0.0,0.0,0.0,0.0,0.0,0.0,0.0,0.0,0.0,0.0,0.0,0.0,0.0,0.0,0.0,0.09,0.0,0.0,0.0,0.09,0.0,0.0,0.0,0.36,2
2026/02/13 16:07:33.916132273,121,800000000,gnss_link,0,0,,0,0,20,0,0,1,55.867285331410336,37.69139464054169,150.20698305778205,-3.1400316769440573,0.6718882637077119,0.0033814875578132885,0.0,0.0,0.0,2026/02/13 16:07:33.916132273,0.0,0.0,0.0,0.0,0.0,0.0,0.0,0.0,0.0,0.0,0.0,0.0,0.0,0.0,0.0,0.09,0.0,0.0,0.0,0.09,0.0,0.0,0.0,0.36,2
2026/02/13 16:07:34.75095156,121,900000000,gnss_link,0,0,,0,0,20,0,0,1,55.86728533046682,37.69139356771766,150.20693586207926,-3.1400316762542486,0.6716444427679908,0.020531381382629138,0.0,0.0,0.0,2026/02/13 16:07:34.75095156,0.0,0.0,0.0,0.0,0.0,0.0,0.0,0.0,0.0,0.0,0.0,0.0,0.0,0.0,0.0,0.09,0.0,0.0,0.0,0.09,0.0,0.0,0.0,0.36,2
2026/02/13 16:07:34.243996308,122,0,gnss_link,0,0,,0,0,20,0,0,1,55.867285329523355,37.691392494962265,150.2069795615971,-3.140031676157959,0.6718397142546948,0.009620714274193969,0.0,0.0,0.0,2026/02/13 16:07:34.243996308,0.0,0.0,0.0,0.0,0.0,0.0,0.0,0.0,0.0,0.0,0.0,0.0,0.0,0.0,0.0,0.09,0.0,0.0,0.0,0.09,0.0,0.0,0.0,0.36,2
2026/02/13 16:07:34.402356661,122,100000000,gnss_link,0,0,,0,0,20,0,0,1,55.86728532857973,37.691391422016906,150.20669024437666,-3.14003167596773,0.6712155009458572,-0.03060680658677855,0.0,0.0,0.0,2026/02/13 16:07:34.402356661,0.0,0.0,0.0,0.0,0.0,0.0,0.0,0.0,0.0,0.0,0.0,0.0,0.0,0.0,0.0,0.09,0.0,0.0,0.0,0.09,0.0,0.0,0.0,0.36,2
2026/02/13 16:07:34.557500245,122,200000000,gnss_link,0,0,,0,0,20,0,0,1,55.867285327636154,37.69139034913616,150.20700671058148,-3.140031676653573,0.6719128714467367,0.010806204059288673,0.0,0.0,0.0,2026/02/13 16:07:34.557500245,0.0,0.0,0.0,0.0,0.0,0.0,0.0,0.0,0.0,0.0,0.0,0.0,0.0,0.0,0.0,0.09,0.0,0.0,0.0,0.09,0.0,0.0,0.0,0.36,2
2026/02/13 16:07:34.714825718,122,300000000,gnss_link,0,0,,0,0,20,0,0,1,55.86728532669266,37.69138927638102,150.20699208043516,-3.1400316766085714,0.6718483277795703,0.014226019921657262,0.0,0.0,0.0,2026/02/13 16:07:34.714825718,0.0,0.0,0.0,0.0,0.0,0.0,0.0,0.0,0.0,0.0,0.0,0.0,0.0,0.0,0.0,0.09,0.0,0.0,0.0,0.09,0.0,0.0,0.0,0.36,2
2026/02/13 16:07:34.881147138,122,400000000,gnss_link,0,0,,0,0,20,0,0,1,55.867285325748036,37.6913882023415,150.20697216317058,-3.14003167611594,0.6797710648673991,0.01667922918532838,0.0,0.0,0.0,2026/02/13 16:07:34.881147138,0.0,0.0,0.0,0.0,0.0,0.0,0.0,0.0,0.0,0.0,0.0,0.0,0.0,0.0,0.0,0.09,0.0,0.0,0.0,0.09,0.0,0.0,0.0,0.36,2
2026/02/13 16:07:35.49086318,122,500000000,gnss_link,0,0,,0,0,20,0,0,1,55.86728532469668,37.69138700708744,150.2067724717781,-3.1400317683879035,0.8018262827086327,0.04331321851198329,0.0,0.0,0.0,2026/02/13 16:07:35.49086318,0.0,0.0,0.0,0.0,0.0,0.0,0.0,0.0,0.0,0.0,0.0,0.0,0.0,0.0,0.0,0.09,0.0,0.0,0.0,0.09,0.0,0.0,0.0,0.36,2
2026/02/13 16:07:35.206913257,122,600000000,gnss_link,0,0,,0,0,20,0,0,1,55.86728532353971,37.69138569175545,150.20674497727305,-3.1400317684960304,0.8266844102605686,0.04379005144199424,0.0,0.0,0.0,2026/02/13 16:07:35.206913257,0.0,0.0,0.0,0.0,0.0,0.0,0.0,0.0,0.0,0.0,0.0,0.0,0.0,0.0,0.0,0.09,0.0,0.0,0.0,0.09,0.0,0.0,0.0,0.36,2
2026/02/13 16:07:35.364481396,122,700000000,gnss_link,0,0,,0,0,20,0,0,1,55.86728532234068,37.691384328415865,150.20701071619987,-3.140031754904823,0.8849383486018277,0.0067893897451048015,0.0,0.0,0.0,2026/02/13 16:07:35.364481396,0.0,0.0,0.0,0.0,0.0,0.0,0.0,0.0,0.0,0.0,0.0,0.0,0.0,0.0,0.0,0.09,0.0,0.0,0.0,0.09,0.0,0.0,0.0,0.36,2
2026/02/13 16:07:35.518746348,122,800000000,gnss_link,0,0,,0,0,20,0,0,1,55.867285321073375,37.69138288749778,150.20696889609098,-3.140031753392783,0.9098272029039169,-0.0018254197108099263,0.0,0.0,0.0,2026/02/13 16:07:35.518746348,0.0,0.0,0.0,0.0,0.0,0.0,0.0,0.0,0.0,0.0,0.0,0.0,0.0,0.0,0.0,0.09,0.0,0.0,0.0,0.09,0.0,0.0,0.0,0.36,2
2026/02/13 16:07:35.680276321,122,900000000,gnss_link,0,0,,0,0,20,0,0,1,55.86728531978522,37.691381422618825,150.20682861562818,-3.140032021816403,0.9328709115227818,0.04546158918834298,0.0,0.0,0.0,2026/02/13 16:07:35.680276321,0.0,0.0,0.0,0.0,0.0,0.0,0.0,0.0,0.0,0.0,0.0,0.0,0.0,0.0,0.0,0.09,0.0,0.0,0.0,0.09,0.0,0.0,0.0,0.36,2
2026/02/13 16:07:35.819446385,123,0,gnss_link,0,0,,0,0,20,0,0,1,55.86728531843693,37.69137988907916,150.20701909717172,-3.1400322337349293,0.9839588850669658,0.006395175234643035,0.0,0.0,0.0,2026/02/13 16:07:35.819446385,0.0,0.0,0.0,0.0,0.0,0.0,0.0,0.0,0.0,0.0,0.0,0.0,0.0,0.0,0.0,0.09,0.0,0.0,0.0,0.09,0.0,0.0,0.0,0.36,2
2026/02/13 16:07:35.978265193,123,100000000,gnss_link,0,0,,0,0,20,0,0,1,55.867285317046715,37.691378308071165,150.20695414673537,-3.1400322471628046,0.9914487511383892,0.0316356299520817,0.0,0.0,0.0,2026/02/13 16:07:35.978265193,0.0,0.0,0.0,0.0,0.0,0.0,0.0,0.0,0.0,0.0,0.0,0.0,0.0,0.0,0.0,0.09,0.0,0.0,0.0,0.09,0.0,0.0,0.0,0.36,2
2026/02/13 16:07:36.127203428,123,200000000,gnss_link,0,0,,0,0,20,0,0,1,55.86728531565094,37.69137672062877,150.20683680009097,-3.1400321052478146,0.9997545633342589,-0.03961468213122731,0.0,0.0,0.0,2026/02/13 16:07:36.127203428,0.0,0.0,0.0,0.0,0.0,0.0,0.0,0.0,0.0,0.0,0.0,0.0,0.0,0.0,0.0,0.09,0.0,0.0,0.0,0.09,0.0,0.0,0.0,0.36,2
2026/02/13 16:07:36.284575592,123,300000000,gnss_link,0,0,,0,0,20,0,0,1,55.867285314247276,37.691375124291554,150.2069708025083,-3.1400322198424355,0.9999931869959541,-0.020804668638955446,0.0,0.0,0.0,2026/02/13 16:07:36.284575592,0.0,0.0,0.0,0.0,0.0,0.0,0.0,0.0,0.0,0.0,0.0,0.0,0.0,0.0,0.0,0.09,0.0,0.0,0.0,0.09,0.0,0.0,0.0,0.36,2
2026/02/13 16:07:36.434025120,123,400000000,gnss_link,0,0,,0,0,20,0,0,1,55.86728531284352,37.69137352788668,150.2067990899086,-3.140032218454405,0.9985623551998897,0.05368722380607817,0.0,0.0,0.0,2026/02/13 16:07:36.434025120,0.0,0.0,0.0,0.0,0.0,0.0,0.0,0.0,0.0,0.0,0.0,0.0,0.0,0.0,0.0,0.09,0.0,0.0,0.0,0.09,0.0,0.0,0.0,0.36,2
2026/02/13 16:07:36.583037087,123,500000000,gnss_link,0,0,,0,0,20,0,0,1,55.8672853114396,37.691371931318564,150.20680750906467,-3.140032219288721,0.9993529664159021,-0.03185650074337832,0.0,0.0,0.0,2026/02/13 16:07:36.583037087,0.0,0.0,0.0,0.0,0.0,0.0,0.0,0.0,0.0,0.0,0.0,0.0,0.0,0.0,0.0,0.09,0.0,0.0,0.0,0.09,0.0,0.0,0.0,0.36,2
2026/02/13 16:07:36.735593425,123,600000000,gnss_link,0,0,,0,0,20,0,0,1,55.867285310035754,37.69137033486188,150.20701106172055,-3.140032218751402,0.9998700506710607,-0.003984810672800846,0.0,0.0,0.0,2026/02/13 16:07:36.735593425,0.0,0.0,0.0,0.0,0.0,0.0,0.0,0.0,0.0,0.0,0.0,0.0,0.0,0.0,0.0,0.09,0.0,0.0,0.0,0.09,0.0,0.0,0.0,0.36,2
2026/02/13 16:07:36.889459374,123,700000000,gnss_link,0,0,,0,0,20,0,0,1,55.86728530863193,37.69136873844037,150.20673395320773,-3.140032218793215,0.9982360935540929,0.05677997365804508,0.0,0.0,0.0,2026/02/13 16:07:36.889459374,0.0,0.0,0.0,0.0,0.0,0.0,0.0,0.0,0.0,0.0,0.0,0.0,0.0,0.0,0.0,0.09,0.0,0.0,0.0,0.09,0.0,0.0,0.0,0.36,2
2026/02/13 16:07:37.45918146,123,800000000,gnss_link,0,0,,0,0,20,0,0,1,55.867285307227974,37.691367141890886,150.2068472346291,-3.140032218886577,0.9999633193699433,-0.046602332678816964,0.0,0.0,0.0,2026/02/13 16:07:37.45918146,0.0,0.0,0.0,0.0,0.0,0.0,0.0,0.0,0.0,0.0,0.0,0.0,0.0,0.0,0.0,0.09,0.0,0.0,0.0,0.09,0.0,0.0,0.0,0.36,2
2026/02/13 16:07:37.212748415,123,900000000,gnss_link,0,0,,0,0,20,0,0,1,55.86728530582425,37.69136554561752,150.20700775273144,-3.140032218665762,0.9999130000566193,0.00479467360031292,0.0,0.0,0.0,2026/02/13 16:07:37.212748415,0.0,0.0,0.0,0.0,0.0,0.0,0.0,0.0,0.0,0.0,0.0,0.0,0.0,0.0,0.0,0.09,0.0,0.0,0.0,0.09,0.0,0.0,0.0,0.36,2
2026/02/13 16:07:37.382780901,124,0,gnss_link,0,0,,0,0,20,0,0,1,55.867285304420314,37.69136394913605,150.20685489475727,-3.1400322186878746,0.9988833236044012,0.044085254875596544,0.0,0.0,0.0,2026/02/13 16:07:37.382780901,0.0,0.0,0.0,0.0,0.0,0.0,0.0,0.0,0.0,0.0,0.0,0.0,0.0,0.0,0.0,0.09,0.0,0.0,0.0,0.09,0.0,0.0,0.0,0.36,2
2026/02/13 16:07:37.541292123,124,100000000,gnss_link,0,0,,0,0,20,0,0,1,55.867285303016324,37.69136235263365,150.20701165311038,-3.1400322197817756,0.999964098684225,0.0007595097568492223,0.0,0.0,0.0,2026/02/13 16:07:37.541292123,0.0,0.0,0.0,0.0,0.0,0.0,0.0,0.0,0.0,0.0,0.0,0.0,0.0,0.0,0.0,0.09,0.0,0.0,0.0,0.09,0.0,0.0,0.0,0.36,2
2026/02/13 16:07:37.693464290,124,200000000,gnss_link,0,0,,0,0,20,0,0,1,55.86728530161233,37.69136075613516,150.2070037126541,-3.1400322186408314,0.9999573325277703,-0.00256841007351322,0.0,0.0,0.0,2026/02/13 16:07:37.693464290,0.0,0.0,0.0,0.0,0.0,0.0,0.0,0.0,0.0,0.0,0.0,0.0,0.0,0.0,0.0,0.09,0.0,0.0,0.0,0.09,0.0,0.0,0.0,0.36,2
2026/02/13 16:07:37.845970157,124,300000000,gnss_link,0,0,,0,0,20,0,0,1,55.86728530020832,37.69135915965228,150.206925034523,-3.140032219812406,0.999258061666415,0.03664015983157748,0.0,0.0,0.0,2026/02/13 16:07:37.845970157,0.0,0.0,0.0,0.0,0.0,0.0,0.0,0.0,0.0,0.0,0.0,0.0,0.0,0.0,0.0,0.09,0.0,0.0,0.0,0.09,0.0,0.0,0.0,0.36,2
2026/02/13 16:07:38.400817,124,400000000,gnss_link,0,0,,0,0,20,0,0,1,55.867285298804326,37.691357563203,150.20697089098394,-3.140032219763005,0.999328526249651,0.015960363800088268,0.0,0.0,0.0,2026/02/13 16:07:38.400817,0.0,0.0,0.0,0.0,0.0,0.0,0.0,0.0,0.0,0.0,0.0,0.0,0.0,0.0,0.0,0.09,0.0,0.0,0.0,0.09,0.0,0.0,0.0,0.36,2
2026/02/13 16:07:38.155803085,124,500000000,gnss_link,0,0,,0,0,20,0,0,1,55.867285297400336,37.691355966781735,150.20696208253503,-3.1400322092744,0.9997748566714173,-0.003217457758846346,0.0,0.0,0.0,2026/02/13 16:07:38.155803085,0.0,0.0,0.0,0.0,0.0,0.0,0.0,0.0,0.0,0.0,0.0,0.0,0.0,0.0,0.0,0.09,0.0,0.0,0.0,0.09,0.0,0.0,0.0,0.36,2
2026/02/13 16:07:38.322829620,124,600000000,gnss_link,0,0,,0,0,20,0,0,1,55.86728529599625,37.69135437025921,150.20695313159376,-3.1400322191106307,0.9999497226079952,-0.023544961177913094,0.0,0.0,0.0,2026/02/13 16:07:38.322829620,0.0,0.0,0.0,0.0,0.0,0.0,0.0,0.0,0.0,0.0,0.0,0.0,0.0,0.0,0.0,0.09,0.0,0.0,0.0,0.09,0.0,0.0,0.0,0.36,2
2026/02/13 16:07:38.479868608,124,700000000,gnss_link,0,0,,0,0,20,0,0,1,55.86728529459223,37.69135277385716,150.20662464480847,-3.140032218087663,0.9990635523053366,-0.05588112724673063,0.0,0.0,0.0,2026/02/13 16:07:38.479868608,0.0,0.0,0.0,0.0,0.0,0.0,0.0,0.0,0.0,0.0,0.0,0.0,0.0,0.0,0.0,0.09,0.0,0.0,0.0,0.09,0.0,0.0,0.0,0.36,2
2026/02/13 16:07:38.630827325,124,800000000,gnss_link,0,0,,0,0,20,0,0,1,55.86728529318805,37.69135117729651,150.20697570126504,-3.140032199040343,0.999819675654472,-0.011753697662020328,0.0,0.0,0.0,2026/02/13 16:07:38.630827325,0.0,0.0,0.0,0.0,0.0,0.0,0.0,0.0,0.0,0.0,0.0,0.0,0.0,0.0,0.0,0.09,0.0,0.0,0.0,0.09,0.0,0.0,0.0,0.36,2
2026/02/13 16:07:38.783628476,124,900000000,gnss_link,0,0,,0,0,20,0,0,1,55.86728529178405,37.69134958095796,150.20701779425144,-3.140032218549686,0.9998520218198652,0.015459787068543698,0.0,0.0,0.0,2026/02/13 16:07:38.783628476,0.0,0.0,0.0,0.0,0.0,0.0,0.0,0.0,0.0,0.0,0.0,0.0,0.0,0.0,0.0,0.09,0.0,0.0,0.0,0.09,0.0,0.0,0.0,0.36,2
2026/02/13 16:07:38.933765477,125,0,gnss_link,0,0,,0,0,20,0,0,1,55.867285290379826,37.6913479843947,150.20655681565404,-3.1400322180752616,0.9988916443099167,-0.06335548359924016,0.0,0.0,0.0,2026/02/13 16:07:38.933765477,0.0,0.0,0.0,0.0,0.0,0.0,0.0,0.0,0.0,0.0,0.0,0.0,0.0,0.0,0.0,0.09,0.0,0.0,0.0,0.09,0.0,0.0,0.0,0.36,2
2026/02/13 16:07:39.94691268,125,100000000,gnss_link,0,0,,0,0,20,0,0,1,55.867285288975644,37.69134638790157,150.2069546636194,-3.1400322184617573,0.9998480022700417,-0.01590472942953987,0.0,0.0,0.0,2026/02/13 16:07:39.94691268,0.0,0.0,0.0,0.0,0.0,0.0,0.0,0.0,0.0,0.0,0.0,0.0,0.0,0.0,0.0,0.09,0.0,0.0,0.0,0.09,0.0,0.0,0.0,0.36,2
2026/02/13 16:07:39.244479209,125,200000000,gnss_link,0,0,,0,0,20,0,0,1,55.867285287571534,37.69134479151995,150.20700009539723,-3.1400322183547096,0.9996898974222515,0.02446845525687025,0.0,0.0,0.0,2026/02/13 16:07:39.244479209,0.0,0.0,0.0,0.0,0.0,0.0,0.0,0.0,0.0,0.0,0.0,0.0,0.0,0.0,0.0,0.09,0.0,0.0,0.0,0.09,0.0,0.0,0.0,0.36,2
2026/02/13 16:07:39.415340225,125,300000000,gnss_link,0,0,,0,0,20,0,0,1,55.86728528616738,37.691343195115834,150.206494118087,-3.1400322180465996,0.9987179193859173,-0.06944899168520247,0.0,0.0,0.0,2026/02/13 16:07:39.415340225,0.0,0.0,0.0,0.0,0.0,0.0,0.0,0.0,0.0,0.0,0.0,0.0,0.0,0.0,0.0,0.09,0.0,0.0,0.0,0.09,0.0,0.0,0.0,0.36,2
2026/02/13 16:07:39.571129897,125,400000000,gnss_link,0,0,,0,0,20,0,0,1,55.86728528476319,37.69134159865516,150.20700796041638,-3.1400322184896705,0.9999742733829766,-0.003847364991736834,0.0,0.0,0.0,2026/02/13 16:07:39.571129897,0.0,0.0,0.0,0.0,0.0,0.0,0.0,0.0,0.0,0.0,0.0,0.0,0.0,0.0,0.0,0.09,0.0,0.0,0.0,0.09,0.0,0.0,0.0,0.36,2
2026/02/13 16:07:39.736776792,125,500000000,gnss_link,0,0,,0,0,20,0,0,1,55.867285283359095,37.69134000235037,150.2069695768878,-3.1400322187523892,0.9995396860873376,0.025721225608145288,0.0,0.0,0.0,2026/02/13 16:07:39.736776792,0.0,0.0,0.0,0.0,0.0,0.0,0.0,0.0,0.0,0.0,0.0,0.0,0.0,0.0,0.0,0.09,0.0,0.0,0.0,0.09,0.0,0.0,0.0,0.36,2
2026/02/13 16:07:39.897233097,125,600000000,gnss_link,0,0,,0,0,20,0,0,1,55.86728528195471,37.69133840573869,150.20671812351793,-3.1400322178315774,0.9990059774407346,-0.04009084503427241,0.0,0.0,0.0,2026/02/13 16:07:39.897233097,0.0,0.0,0.0,0.0,0.0,0.0,0.0,0.0,0.0,0.0,0.0,0.0,0.0,0.0,0.0,0.09,0.0,0.0,0.0,0.09,0.0,0.0,0.0,0.36,2
2026/02/13 16:07:40.79198557,125,700000000,gnss_link,0,0,,0,0,20,0,0,1,55.86728528055049,37.691336809344634,150.20700754225254,-3.14003221911576,0.9997425046297648,0.021626073269731476,0.0,0.0,0.0,2026/02/13 16:07:40.79198557,0.0,0.0,0.0,0.0,0.0,0.0,0.0,0.0,0.0,0.0,0.0,0.0,0.0,0.0,0.0,0.09,0.0,0.0,0.0,0.09,0.0,0.0,0.0,0.36,2
2026/02/13 16:07:40.289236111,125,800000000,gnss_link,0,0,,0,0,20,0,0,1,55.86728527914622,37.69133521291057,150.2069792067632,-3.1400322190099867,0.9996348207048004,0.01944052574209233,0.0,0.0,0.0,2026/02/13 16:07:40.289236111,0.0,0.0,0.0,0.0,0.0,0.0,0.0,0.0,0.0,0.0,0.0,0.0,0.0,0.0,0.0,0.09,0.0,0.0,0.0,0.09,0.0,0.0,0.0,0.36,2
2026/02/13 16:07:40.469634320,125,900000000,gnss_link,0,0,,0,0,20,0,0,1,55.86728527802902,37.691333928923335,150.20700239017606,-3.140032307740634,0.7048443652178246,0.014671610552083615,0.0,0.0,0.0,2026/02/13 16:07:40.469634320,0.0,0.0,0.0,0.0,0.0,0.0,0.0,0.0,0.0,0.0,0.0,0.0,0.0,0.0,0.0,0.09,0.0,0.0,0.0,0.09,0.0,0.0,0.0,0.36,2
2026/02/13 16:07:40.640922243,126,0,gnss_link,0,0,,0,0,20,0,0,1,55.86728527714878,37.69133293059317,150.20697248727083,-3.1400327786622975,0.5409225390830181,-0.009057858861803506,0.0,0.0,0.0,2026/02/13 16:07:40.640922243,0.0,0.0,0.0,0.0,0.0,0.0,0.0,0.0,0.0,0.0,0.0,0.0,0.0,0.0,0.0,0.09,0.0,0.0,0.0,0.09,0.0,0.0,0.0,0.36,2
2026/02/13 16:07:40.820571170,126,100000000,gnss_link,0,0,,0,0,20,0,0,1,55.86728527646308,37.69133215064675,150.2070132251829,-3.1400328680771024,0.483961251107364,0.004180399358161974,0.0,0.0,0.0,2026/02/13 16:07:40.820571170,0.0,0.0,0.0,0.0,0.0,0.0,0.0,0.0,0.0,0.0,0.0,0.0,0.0,0.0,0.0,0.09,0.0,0.0,0.0,0.09,0.0,0.0,0.0,0.36,2
2026/02/13 16:07:40.973878806,126,200000000,gnss_link,0,0,,0,0,20,0,0,1,55.86728527578366,37.6913313779608,150.20690797828138,-3.1400328677825367,0.4836761866433954,0.017689021871323225,0.0,0.0,0.0,2026/02/13 16:07:40.973878806,0.0,0.0,0.0,0.0,0.0,0.0,0.0,0.0,0.0,0.0,0.0,0.0,0.0,0.0,0.0,0.09,0.0,0.0,0.0,0.09,0.0,0.0,0.0,0.36,2
2026/02/13 16:07:41.138313341,126,300000000,gnss_link,0,0,,0,0,20,0,0,1,55.867285275104216,37.69133060525393,150.2069879025221,-3.140032868005457,0.4839320403097853,-0.001883662336408704,0.0,0.0,0.0,2026/02/13 16:07:41.138313341,0.0,0.0,0.0,0.0,0.0,0.0,0.0,0.0,0.0,0.0,0.0,0.0,0.0,0.0,0.0,0.09,0.0,0.0,0.0,0.09,0.0,0.0,0.0,0.36,2
2026/02/13 16:07:41.305995253,126,400000000,gnss_link,0,0,,0,0,20,0,0,1,55.86728527442471,37.69132983249279,150.20685239788145,-3.1400328677932556,0.48369801668621193,-0.015304238036411526,0.0,0.0,0.0,2026/02/13 16:07:41.305995253,0.0,0.0,0.0,0.0,0.0,0.0,0.0,0.0,0.0,0.0,0.0,0.0,0.0,0.0,0.0,0.09,0.0,0.0,0.0,0.09,0.0,0.0,0.0,0.36,2
2026/02/13 16:07:41.467973217,126,500000000,gnss_link,0,0,,0,0,20,0,0,1,55.86728527374531,37.69132905985049,150.20699548069388,-3.140032867842376,0.48394947536364924,-0.002277664488260061,0.0,0.0,0.0,2026/02/13 16:07:41.467973217,0.0,0.0,0.0,0.0,0.0,0.0,0.0,0.0,0.0,0.0,0.0,0.0,0.0,0.0,0.0,0.09,0.0,0.0,0.0,0.09,0.0,0.0,0.0,0.36,2
2026/02/13 16:07:41.628020521,126,600000000,gnss_link,0,0,,0,0,20,0,0,1,55.86728527306589,37.69132828718184,150.20699413586408,-3.140032612934279,0.48389293370128833,0.010085926768326602,0.0,0.0,0.0,2026/02/13 16:07:41.628020521,0.0,0.0,0.0,0.0,0.0,0.0,0.0,0.0,0.0,0.0,0.0,0.0,0.0,0.0,0.0,0.09,0.0,0.0,0.0,0.09,0.0,0.0,0.0,0.36,2
2026/02/13 16:07:41.795043199,126,700000000,gnss_link,0,0,,0,0,20,0,0,1,55.867285272386404,37.69132751445565,150.20694805961102,-3.1400328674225197,0.48386226724521386,-0.005849160453991185,0.0,0.0,0.0,2026/02/13 16:07:41.795043199,0.0,0.0,0.0,0.0,0.0,0.0,0.0,0.0,0.0,0.0,0.0,0.0,0.0,0.0,0.0,0.09,0.0,0.0,0.0,0.09,0.0,0.0,0.0,0.36,2
