time,header_stamp_secs,header_stamp_nsecs,header_frame_id,status_status,status_service,latitude,longitude,altitude,position_covariance_0,position_covariance_1,position_covariance_2,position_covariance_3,position_covariance_4,position_covariance_5,position_covariance_6,position_covariance_7,position_covariance_8,position_covariance_type
2026/02/13 16:07:18.613662912,108,900000000,gnss_link,1,1,55.86728538236451,37.69145258506212,150.2069659093395,0.09,0.0,0.0,0.0,0.09,0.0,0.0,0.0,0.36,2
2026/02/13 16:07:18.650330743,109,0,gnss_link,1,1,55.86728538236451,37.69145258506212,150.2069659093395,0.09,0.0,0.0,0.0,0.09,0.0,0.0,0.0,0.36,2
2026/02/13 16:07:18.758182205,109,100000000,gnss_link,1,1,55.86728538236451,37.69145258506212,150.2069659093395,0.09,0.0,0.0,0.0,0.09,0.0,0.0,0.0,0.36,2
2026/02/13 16:07:18.874145946,109,200000000,gnss_link,1,1,55.86728538236451,37.69145258506212,150.2069659093395,0.09,0.0,0.0,0.0,0.09,0.0,0.0,0.0,0.36,2
2026/02/13 16:07:18.980177144,109,300000000,gnss_link,1,1,55.86728538236451,37.69145258506212,150.2069659093395,0.09,0.0,0.0,0.0,0.09,0.0,0.0,0.0,0.36,2
2026/02/13 16:07:19.88144665,109,400000000,gnss_link,1,1,55.86728538236451,37.69145258506212,150.2069659093395,0.09,0.0,0.0,0.0,0.09,0.0,0.0,0.0,0.36,2
2026/02/13 16:07:19.192562356,109,500000000,gnss_link,1,1,55.86728538236451,37.69145258506212,150.2069659093395,0.09,0.0,0.0,0.0,0.09,0.0,0.0,0.0,0.36,2
2026/02/13 16:07:19.299700216,109,600000000,gnss_link,1,1,55.86728538236451,37.69145258506212,150.2069659093395,0.09,0.0,0.0,0.0,0.09,0.0,0.0,0.0,0.36,2
2026/02/13 16:07:19.405780767,109,700000000,gnss_link,1,1,55.86728538236451,37.69145258506212,150.2069659093395,0.09,0.0,0.0,0.0,0.09,0.0,0.0,0.0,0.36,2
2026/02/13 16:07:19.509309557,109,800000000,gnss_link,1,1,55.86728538236451,37.69145258506212,150.2069659093395,0.09,0.0,0.0,0.0,0.09,0.0,0.0,0.0,0.36,2
2026/02/13 16:07:19.610476653,109,900000000,gnss_link,1,1,55.86728538236451,37.69145258506212,150.2069659093395,0.09,0.0,0.0,0.0,0.09,0.0,0.0,0.0,0.36,2
2026/02/13 16:07:19.717901998,110,0,gnss_link,1,1,55.86728538236451,37.69145258506212,150.2069659093395,0.09,0.0,0.0,0.0,0.09,0.0,0.0,0.0,0.36,2
2026/02/13 16:07:19.823822914,110,100000000,gnss_link,1,1,55.86728538236451,37.69145258506212,150.2069659093395,0.09,0.0,0.0,0.0,0.09,0.0,0.0,0.0,0.36,2
2026/02/13 16:07:19.926879975,110,200000000,gnss_link,1,1,55.86728538236451,37.69145258506212,150.2069659093395,0.09,0.0,0.0,0.0,0.09,0.0,0.0,0.0,0.36,2
2026/02/13 16:07:20.30476645,110,300000000,gnss_link,1,1,55.86728538236451,37.69145258506212,150.2069659093395,0.09,0.0,0.0,0.0,0.09,0.0,0.0,0.0,0.36,2
2026/02/13 16:07:20.134817856,110,400000000,gnss_link,1,1,55.86728538236451,37.69145258506212,150.2069659093395,0.09,0.0,0.0,0.0,0.09,0.0,0.0,0.0,0.36,2
2026/02/13 16:07:20.236346646,110,500000000,gnss_link,1,1,55.86728538236451,37.69145258506212,150.2069659093395,0.09,0.0,0.0,0.0,0.09,0.0,0.0,0.0,0.36,2
2026/02/13 16:07:20.347181931,110,600000000,gnss_link,1,1,55.86728538236451,37.69145258506212,150.2069659093395,0.09,0.0,0.0,0.0,0.09,0.0,0.0,0.0,0.36,2
2026/02/13 16:07:20.448606894,110,700000000,gnss_link,1,1,55.86728538236451,37.69145258506212,150.2069659093395,0.09,0.0,0.0,0.0,0.09,0.0,0.0,0.0,0.36,2
2026/02/13 16:07:20.553583169,110,800000000,gnss_link,1,1,55.86728538236451,37.69145258506212,150.2069659093395,0.09,0.0,0.0,0.0,0.09,0.0,0.0,0.0,0.36,2
2026/02/13 16:07:20.654966598,110,900000000,gnss_link,1,1,55.86728538236451,37.69145258506212,150.2069659093395,0.09,0.0,0.0,0.0,0.09,0.0,0.0,0.0,0.36,2
2026/02/13 16:07:20.759681796,111,0,gnss_link,1,1,55.86728538236451,37.69145258506212,150.2069659093395,0.09,0.0,0.0,0.0,0.09,0.0,0.0,0.0,0.36,2
2026/02/13 16:07:20.866125458,111,100000000,gnss_link,1,1,55.86728538236451,37.69145258506212,150.2069659093395,0.09,0.0,0.0,0.0,0.09,0.0,0.0,0.0,0.36,2
2026/02/13 16:07:20.972705826,111,200000000,gnss_link,1,1,55.86728538236451,37.69145258506212,150.2069659093395,0.09,0.0,0.0,0.0,0.09,0.0,0.0,0.0,0.36,2
2026/02/13 16:07:21.76206933,111,300000000,gnss_link,1,1,55.86728538236451,37.69145258506212,150.2069659093395,0.09,0.0,0.0,0.0,0.09,0.0,0.0,0.0,0.36,2
2026/02/13 16:07:21.179182934,111,400000000,gnss_link,1,1,55.86728538236451,37.69145258506212,150.2069659093395,0.09,0.0,0.0,0.0,0.09,0.0,0.0,0.0,0.36,2
2026/02/13 16:07:21.314103274,111,500000000,gnss_link,1,1,55.86728538236451,37.69145258506212,150.2069659093395,0.09,0.0,0.0,0.0,0.09,0.0,0.0,0.0,0.36,2
2026/02/13 16:07:21.422632242,111,600000000,gnss_link,1,1,55.86728538236451,37.69145258506212,150.2069659093395,0.09,0.0,0.0,0.0,0.09,0.0,0.0,0.0,0.36,2
2026/02/13 16:07:21.529087022,111,700000000,gnss_link,1,1,55.86728538236451,37.69145258506212,150.2069659093395,0.09,0.0,0.0,0.0,0.09,0.0,0.0,0.0,0.36,2
2026/02/13 16:07:21.638039901,111,800000000,gnss_link,1,1,55.86728538236451,37.69145258506212,150.2069659093395,0.09,0.0,0.0,0.0,0.09,0.0,0.0,0.0,0.36,2
2026/02/13 16:07:21.749222207,111,900000000,gnss_link,1,1,55.86728538236451,37.69145258506212,150.2069659093395,0.09,0.0,0.0,0.0,0.09,0.0,0.0,0.0,0.36,2
2026/02/13 16:07:21.857272821,112,0,gnss_link,1,1,55.86728538236451,37.69145258506212,150.2069659093395,0.09,0.0,0.0,0.0,0.09,0.0,0.0,0.0,0.36,2
2026/02/13 16:07:21.965758130,112,100000000,gnss_link,1,1,55.86728538236451,37.69145258506212,150.2069659093395,0.09,0.0,0.0,0.0,0.09,0.0,0.0,0.0,0.36,2
2026/02/13 16:07:22.73616652,112,200000000,gnss_link,1,1,55.86728538236451,37.69145258506212,150.2069659093395,0.09,0.0,0.0,0.0,0.09,0.0,0.0,0.0,0.36,2
2026/02/13 16:07:22.177448393,112,300000000,gnss_link,1,1,55.86728538236451,37.69145258506212,150.2069659093395,0.09,0.0,0.0,0.0,0.09,0.0,0.0,0.0,0.36,2
2026/02/13 16:07:22.284847391,112,400000000,gnss_link,1,1,55.86728538236451,37.69145258506212,150.2069659093395,0.09,0.0,0.0,0.0,0.09,0.0,0.0,0.0,0.36,2
2026/02/13 16:07:22.398944977,112,500000000,gnss_link,1,1,55.86728538236451,37.69145258506212,150.2069659093395,0.09,0.0,0.0,0.0,0.09,0.0,0.0,0.0,0.36,2
2026/02/13 16:07:22.502445100,112,600000000,gnss_link,1,1,55.86728538236451,37.69145258506212,150.2069659093395,0.09,0.0,0.0,0.0,0.09,0.0,0.0,0.0,0.36,2
2026/02/13 16:07:22.613643220,112,700000000,gnss_link,1,1,55.86728538236451,37.69145258506212,150.2069659093395,0.09,0.0,0.0,0.0,0.09,0.0,0.0,0.0,0.36,2
2026/02/13 16:07:22.720038099,112,800000000,gnss_link,1,1,55.86728538236451,37.69145258506212,150.2069659093395,0.09,0.0,0.0,0.0,0.09,0.0,0.0,0.0,0.36,2
2026/02/13 16:07:22.835787681,112,900000000,gnss_link,1,1,55.86728538236451,37.69145258506212,150.2069659093395,0.09,0.0,0.0,0.0,0.09,0.0,0.0,0.0,0.36,2
2026/02/13 16:07:22.938412144,113,0,gnss_link,1,1,55.86728538236451,37.69145258506212,150.2069659093395,0.09,0.0,0.0,0.0,0.09,0.0,0.0,0.0,0.36,2
2026/02/13 16:07:23.42250173,113,100000000,gnss_link,1,1,55.86728538236451,37.69145258506212,150.2069659093395,0.09,0.0,0.0,0.0,0.09,0.0,0.0,0.0,0.36,2
2026/02/13 16:07:23.149111279,113,200000000,gnss_link,1,1,55.86728538236451,37.69145258506212,150.2069659093395,0.09,0.0,0.0,0.0,0.09,0.0,0.0,0.0,0.36,2
2026/02/13 16:07:23.262116782,113,300000000,gnss_link,1,1,55.86728538236451,37.69145258506212,150.2069659093395,0.09,0.0,0.0,0.0,0.09,0.0,0.0,0.0,0.36,2
2026/02/13 16:07:23.373779819,113,400000000,gnss_link,1,1,55.86728538236451,37.69145258506212,150.2069659093395,0.09,0.0,0.0,0.0,0.09,0.0,0.0,0.0,0.36,2
2026/02/13 16:07:23.483124237,113,500000000,gnss_link,1,1,55.86728538236451,37.69145258506212,150.2069659093395,0.09,0.0,0.0,0.0,0.09,0.0,0.0,0.0,0.36,2
2026/02/13 16:07:23.679289196,113,600000000,gnss_link,1,1,55.86728538236451,37.69145258506212,150.2069659093395,0.09,0.0,0.0,0.0,0.09,0.0,0.0,0.0,0.36,2
2026/02/13 16:07:23.794765314,113,700000000,gnss_link,1,1,55.86728538236451,37.69145258506212,150.2069659093395,0.09,0.0,0.0,0.0,0.09,0.0,0.0,0.0,0.36,2
2026/02/13 16:07:23.902940018,113,800000000,gnss_link,1,1,55.86728538236451,37.69145258506212,150.2069659093395,0.09,0.0,0.0,0.0,0.09,0.0,0.0,0.0,0.36,2
2026/02/13 16:07:24.33178958,113,900000000,gnss_link,1,1,55.86728538236451,37.69145258506212,150.2069659093395,0.09,0.0,0.0,0.0,0.09,0.0,0.0,0.0,0.36,2
2026/02/13 16:07:24.139503904,114,0,gnss_link,1,1,55.86728538236451,37.69145258506212,150.2069659093395,0.09,0.0,0.0,0.0,0.09,0.0,0.0,0.0,0.36,2
2026/02/13 16:07:24.243128160,114,100000000,gnss_link,1,1,55.86728538236451,37.69145258506212,150.2069659093395,0.09,0.0,0.0,0.0,0.09,0.0,0.0,0.0,0.36,2
2026/02/13 16:07:24.350704486,114,200000000,gnss_link,1,1,55.86728538236451,37.69145258506212,150.2069659093395,0.09,0.0,0.0,0.0,0.09,0.0,0.0,0.0,0.36,2
2026/02/13 16:07:24.454385444,114,300000000,gnss_link,1,1,55.86728538236451,37.69145258506212,150.2069659093395,0.09,0.0,0.0,0.0,0.09,0.0,0.0,0.0,0.36,2
2026/02/13 16:07:24.556537295,114,400000000,gnss_link,1,1,55.86728538236451,37.69145258506212,150.2069659093395,0.09,0.0,0.0,0.0,0.09,0.0,0.0,0.0,0.36,2
2026/02/13 16:07:24.663134916,114,500000000,gnss_link,1,1,55.86728538236451,37.69145258506212,150.2069659093395,0.09,0.0,0.0,0.0,0.09,0.0,0.0,0.0,0.36,2
2026/02/13 16:07:24.767907940,114,600000000,gnss_link,1,1,55.86728538236451,37.69145258506212,150.2069659093395,0.09,0.0,0.0,0.0,0.09,0.0,0.0,0.0,0.36,2
2026/02/13 16:07:24.898900611,114,700000000,gnss_link,1,1,55.86728538236451,37.69145258506212,150.2069659093395,0.09,0.0,0.0,0.0,0.09,0.0,0.0,0.0,0.36,2
2026/02/13 16:07:25.12812403,114,800000000,gnss_link,1,1,55.86728538236451,37.69145258506212,150.2069659093395,0.09,0.0,0.0,0.0,0.09,0.0,0.0,0.0,0.36,2
2026/02/13 16:07:25.120976291,114,900000000,gnss_link,1,1,55.86728538236451,37.69145258506212,150.2069659093395,0.09,0.0,0.0,0.0,0.09,0.0,0.0,0.0,0.36,2
2026/02/13 16:07:25.230776154,115,0,gnss_link,1,1,55.86728538236451,37.69145258506212,150.2069659093395,0.09,0.0,0.0,0.0,0.09,0.0,0.0,0.0,0.36,2
2026/02/13 16:07:25.338706977,115,100000000,gnss_link,1,1,55.86728538236451,37.69145258506212,150.2069659093395,0.09,0.0,0.0,0.0,0.09,0.0,0.0,0.0,0.36,2
2026/02/13 16:07:25.444284979,115,200000000,gnss_link,1,1,55.86728538236451,37.69145258506212,150.2069659093395,0.09,0.0,0.0,0.0,0.09,0.0,0.0,0.0,0.36,2
2026/02/13 16:07:25.656415461,115,300000000,gnss_link,1,1,55.86728538236451,37.69145258506212,150.2069659093395,0.09,0.0,0.0,0.0,0.09,0.0,0.0,0.0,0.36,2
2026/02/13 16:07:25.778840271,115,400000000,gnss_link,1,1,55.86728538236451,37.69145258506212,150.2069659093395,0.09,0.0,0.0,0.0,0.09,0.0,0.0,0.0,0.36,2
2026/02/13 16:07:25.895477714,115,500000000,gnss_link,1,1,55.86728538236451,37.69145258506212,150.2069659093395,0.09,0.0,0.0,0.0,0.09,0.0,0.0,0.0,0.36,2
2026/02/13 16:07:26.3954799,115,600000000,gnss_link,1,1,55.86728538236451,37.69145258506212,150.2069659093395,0.09,0.0,0.0,0.0,0.09,0.0,0.0,0.0,0.36,2
2026/02/13 16:07:26.108206518,115,700000000,gnss_link,1,1,55.86728538236451,37.69145258506212,150.2069659093395,0.09,0.0,0.0,0.0,0.09,0.0,0.0,0.0,0.36,2
2026/02/13 16:07:26.224060556,115,800000000,gnss_link,1,1,55.86728538236451,37.69145258506212,150.2069659093395,0.09,0.0,0.0,0.0,0.09,0.0,0.0,0.0,0.36,2
2026/02/13 16:07:26.331673028,115,900000000,gnss_link,1,1,55.86728538236451,37.69145258506212,150.2069659093395,0.09,0.0,0.0,0.0,0.09,0.0,0.0,0.0,0.36,2
2026/02/13 16:07:26.436988921,116,0,gnss_link,1,1,55.86728538236451,37.69145258506212,150.2069659093395,0.09,0.0,0.0,0.0,0.09,0.0,0.0,0.0,0.36,2
2026/02/13 16:07:26.543014446,116,100000000,gnss_link,1,1,55.867285382348406,37.69145256802031,150.20691077411175,0.09,0.0,0.0,0.0,0.09,0.0,0.0,0.0,0.36,2
2026/02/13 16:07:26.646592781,116,200000000,gnss_link,1,1,55.8672853819701,37.69145214270258,150.20689485780895,0.09,0.0,0.0,0.0,0.09,0.0,0.0,0.0,0.36,2
2026/02/13 16:07:26.756275263,116,300000000,gnss_link,1,1,55.867285381355906,37.69145144395969,150.20696338266134,0.09,0.0,0.0,0.0,0.09,0.0,0.0,0.0,0.36,2
2026/02/13 16:07:26.855112902,116,400000000,gnss_link,1,1,55.86728538062346,37.69145061064515,150.2069730553776,0.09,0.0,0.0,0.0,0.09,0.0,0.0,0.0,0.36,2
2026/02/13 16:07:26.967039280,116,500000000,gnss_link,1,1,55.867285379873415,37.6914497573937,150.2069960422814,0.09,0.0,0.0,0.0,0.09,0.0,0.0,0.0,0.36,2
2026/02/13 16:07:27.70001885,116,600000000,gnss_link,1,1,55.867285379085466,37.69144886102035,150.20696472655982,0.09,0.0,0.0,0.0,0.09,0.0,0.0,0.0,0.36,2
2026/02/13 16:07:27.176665173,116,700000000,gnss_link,1,1,55.86728537825757,37.69144791921728,150.206856014207,0.09,0.0,0.0,0.0,0.09,0.0,0.0,0.0,0.36,2
2026/02/13 16:07:27.274575382,116,800000000,gnss_link,1,1,55.86728537742957,37.69144697733373,150.20667572692037,0.09,0.0,0.0,0.0,0.09,0.0,0.0,0.0,0.36,2
2026/02/13 16:07:27.377843715,116,900000000,gnss_link,1,1,55.86728537660166,37.69144603549698,150.20692346151918,0.09,0.0,0.0,0.0,0.09,0.0,0.0,0.0,0.36,2
2026/02/13 16:07:27.480254040,117,0,gnss_link,1,1,55.86728537577368,37.69144509361315,150.2069125045091,0.09,0.0,0.0,0.0,0.09,0.0,0.0,0.0,0.36,2
2026/02/13 16:07:27.584929146,117,100000000,gnss_link,1,1,55.86728537494565,37.69144415168168,150.20699442829937,0.09,0.0,0.0,0.0,0.09,0.0,0.0,0.0,0.36,2
2026/02/13 16:07:27.695135970,117,200000000,gnss_link,1,1,55.86728537411755,37.69144320968314,150.2069611409679,0.09,0.0,0.0,0.0,0.09,0.0,0.0,0.0,0.36,2
2026/02/13 16:07:27.799309387,117,300000000,gnss_link,1,1,55.867285373289555,37.69144226780144,150.20696822181344,0.09,0.0,0.0,0.0,0.09,0.0,0.0,0.0,0.36,2
2026/02/13 16:07:27.906758152,117,400000000,gnss_link,1,1,55.86728537246143,37.69144132580856,150.2066418407485,0.09,0.0,0.0,0.0,0.09,0.0,0.0,0.0,0.36,2
2026/02/13 16:07:28.5489459,117,500000000,gnss_link,1,1,55.86728537163344,37.691440383948255,150.20692836679518,0.09,0.0,0.0,0.0,0.09,0.0,0.0,0.0,0.36,2
2026/02/13 16:07:28.111774794,117,600000000,gnss_link,1,1,55.86728537079736,37.691439432906186,150.20693853497505,0.09,0.0,0.0,0.0,0.09,0.0,0.0,0.0,0.36,2
2026/02/13 16:07:28.215560482,117,700000000,gnss_link,1,1,55.86728536993067,37.691438447038365,150.2069932539016,0.09,0.0,0.0,0.0,0.09,0.0,0.0,0.0,0.36,2
2026/02/13 16:07:28.320929618,117,800000000,gnss_link,1,1,55.86728536904513,37.69143743975572,150.20695310644805,0.09,0.0,0.0,0.0,0.09,0.0,0.0,0.0,0.36,2
2026/02/13 16:07:28.425831515,117,900000000,gnss_link,1,1,55.86728536815847,37.69143643119256,150.2069000089541,0.09,0.0,0.0,0.0,0.09,0.0,0.0,0.0,0.36,2
2026/02/13 16:07:28.529484795,118,0,gnss_link,1,1,55.86728536725653,37.69143540527164,150.20697571057826,0.09,0.0,0.0,0.0,0.09,0.0,0.0,0.0,0.36,2
2026/02/13 16:07:28.637137508,118,100000000,gnss_link,1,1,55.86728536631564,37.69143433505259,150.20699369627982,0.09,0.0,0.0,0.0,0.09,0.0,0.0,0.0,0.36,2
2026/02/13 16:07:28.738923201,118,200000000,gnss_link,1,1,55.86728536537245,37.691433262250854,150.2070077965036,0.09,0.0,0.0,0.0,0.09,0.0,0.0,0.0,0.36,2
2026/02/13 16:07:28.849160991,118,300000000,gnss_link,1,1,55.867285364429144,37.69143218929951,150.20654839929193,0.09,0.0,0.0,0.0,0.09,0.0,0.0,0.0,0.36,2
2026/02/13 16:07:28.961521362,118,400000000,gnss_link,1,1,55.86728536348594,37.69143111646795,150.2069659093395,0.09,0.0,0.0,0.0,0.09,0.0,0.0,0.0,0.36,2
2026/02/13 16:07:29.81222822,118,500000000,gnss_link,1,1,55.8672853625438,37.69143004366966,150.20698107033968,0.09,0.0,0.0,0.0,0.09,0.0,0.0,0.0,0.36,2
2026/02/13 16:07:29.195617355,118,600000000,gnss_link,1,1,55.867285361600366,37.691428970873375,150.20698339492083,0.09,0.0,0.0,0.0,0.09,0.0,0.0,0.0,0.36,2
2026/02/13 16:07:29.315319990,118,700000000,gnss_link,1,1,55.86728536065694,37.69142789794692,150.20673650689423,0.09,0.0,0.0,0.0,0.09,0.0,0.0,0.0,0.36,2
2026/02/13 16:07:29.440499348,118,800000000,gnss_link,1,1,55.867285359713705,37.691426825219516,150.2069404218346,0.09,0.0,0.0,0.0,0.09,0.0,0.0,0.0,0.36,2
2026/02/13 16:07:29.552845448,118,900000000,gnss_link,1,1,55.86728535877034,37.69142575236866,150.20697058085352,0.09,0.0,0.0,0.0,0.09,0.0,0.0,0.0,0.36,2
2026/02/13 16:07:29.674886883,119,0,gnss_link,1,1,55.867285357827015,37.69142467958026,150.2069420106709,0.09,0.0,0.0,0.0,0.09,0.0,0.0,0.0,0.36,2
2026/02/13 16:07:29.803552448,119,100000000,gnss_link,1,1,55.86728535688358,37.69142360666212,150.20686428807676,0.09,0.0,0.0,0.0,0.09,0.0,0.0,0.0,0.36,2
2026/02/13 16:07:29.930940377,119,200000000,gnss_link,1,1,55.867285355940254,37.69142253390456,150.20689832046628,0.09,0.0,0.0,0.0,0.09,0.0,0.0,0.0,0.36,2
2026/02/13 16:07:30.68614152,119,300000000,gnss_link,1,1,55.86728535499689,37.691421461092816,150.2069363920018,0.09,0.0,0.0,0.0,0.09,0.0,0.0,0.0,0.36,2
2026/02/13 16:07:30.202803104,119,400000000,gnss_link,1,1,55.86728535405358,37.6914203883541,150.2069422658533,0.09,0.0,0.0,0.0,0.09,0.0,0.0,0.0,0.36,2
2026/02/13 16:07:30.336896302,119,500000000,gnss_link,1,1,55.86728535311018,37.69141931553044,150.20695971976966,0.09,0.0,0.0,0.0,0.09,0.0,0.0,0.0,0.36,2
2026/02/13 16:07:30.481008468,119,600000000,gnss_link,1,1,55.8672853521668,37.69141824276284,150.20673476811498,0.09,0.0,0.0,0.0,0.09,0.0,0.0,0.0,0.36,2
2026/02/13 16:07:30.607986344,119,700000000,gnss_link,1,1,55.867285351223266,37.69141716979235,150.20697979163378,0.09,0.0,0.0,0.0,0.09,0.0,0.0,0.0,0.36,2
2026/02/13 16:07:30.745073689,119,800000000,gnss_link,1,1,55.8672853502799,37.69141609704546,150.20693413820118,0.09,0.0,0.0,0.0,0.09,0.0,0.0,0.0,0.36,2
2026/02/13 16:07:30.887311549,119,900000000,gnss_link,1,1,55.867285349336555,37.691415024314026,150.20700308587402,0.09,0.0,0.0,0.0,0.09,0.0,0.0,0.0,0.36,2
2026/02/13 16:07:31.44479746,120,0,gnss_link,1,1,55.86728534839303,37.69141395141454,150.20651657972485,0.09,0.0,0.0,0.0,0.09,0.0,0.0,0.0,0.36,2
2026/02/13 16:07:31.191020757,120,100000000,gnss_link,1,1,55.86728534744953,37.6914128785237,150.20698036439717,0.09,0.0,0.0,0.0,0.09,0.0,0.0,0.0,0.36,2
2026/02/13 16:07:31.350365225,120,200000000,gnss_link,1,1,55.86728534650608,37.691411805718765,150.2069842396304,0.09,0.0,0.0,0.0,0.09,0.0,0.0,0.0,0.36,2
2026/02/13 16:07:31.505164053,120,300000000,gnss_link,1,1,55.86728534556264,37.69141073293944,150.20698298793286,0.09,0.0,0.0,0.0,0.09,0.0,0.0,0.0,0.36,2
2026/02/13 16:07:31.657032496,120,400000000,gnss_link,1,1,55.86728534461902,37.691409659954815,150.2066981419921,0.09,0.0,0.0,0.0,0.09,0.0,0.0,0.0,0.36,2
2026/02/13 16:07:31.816710415,120,500000000,gnss_link,1,1,55.867285343675604,37.691408587207476,150.20696463715285,0.09,0.0,0.0,0.0,0.09,0.0,0.0,0.0,0.36,2
2026/02/13 16:07:31.972894111,120,600000000,gnss_link,1,1,55.867285342732124,37.691407514416255,150.20701445546,0.09,0.0,0.0,0.0,0.09,0.0,0.0,0.0,0.36,2
2026/02/13 16:07:32.129801517,120,700000000,gnss_link,1,1,55.86728534178863,37.69140644161772,150.2069418830797,0.09,0.0,0.0,0.0,0.09,0.0,0.0,0.0,0.36,2
2026/02/13 16:07:32.287472404,120,800000000,gnss_link,1,1,55.867285340844944,37.69140536860485,150.20685661956668,0.09,0.0,0.0,0.0,0.09,0.0,0.0,0.0,0.36,2
2026/02/13 16:07:32.457235584,120,900000000,gnss_link,1,1,55.86728533990159,37.69140429597168,150.20693138614297,0.09,0.0,0.0,0.0,0.09,0.0,0.0,0.0,0.36,2
2026/02/13 16:07:32.626179873,121,0,gnss_link,1,1,55.867285338958006,37.691403223103606,150.2069952590391,0.09,0.0,0.0,0.0,0.09,0.0,0.0,0.0,0.36,2
2026/02/13 16:07:32.793119209,121,100000000,gnss_link,1,1,55.86728533800742,37.69140215031091,150.20686126407236,0.09,0.0,0.0,0.0,0.09,0.0,0.0,0.0,0.36,2
2026/02/13 16:07:32.957027061,121,200000000,gnss_link,1,1,55.86728533707115,37.69140107743501,150.20695089641958,0.09,0.0,0.0,0.0,0.09,0.0,0.0,0.0,0.36,2
2026/02/13 16:07:33.118022519,121,300000000,gnss_link,1,1,55.86728533612776,37.69140000467611,150.2068119868636,0.09,0.0,0.0,0.0,0.09,0.0,0.0,0.0,0.36,2
2026/02/13 16:07:33.282923187,121,400000000,gnss_link,1,1,55.867285335184334,37.691398931886965,150.2069697007537,0.09,0.0,0.0,0.0,0.09,0.0,0.0,0.0,0.36,2
2026/02/13 16:07:33.447365796,121,500000000,gnss_link,1,1,55.86728533424088,37.69139785910129,150.2068005250767,0.09,0.0,0.0,0.0,0.09,0.0,0.0,0.0,0.36,2
2026/02/13 16:07:33.605789008,121,600000000,gnss_link,1,1,55.867285333297374,37.69139678624791,150.20697750430554,0.09,0.0,0.0,0.0,0.09,0.0,0.0,0.0,0.36,2
2026/02/13 16:07:33.765571457,121,700000000,gnss_link,1,1,55.86728533235388,37.691395713433316,150.2065791543573,0.09,0.0,0.0,0.0,0.09,0.0,0.0,0.0,0.36,2
2026/02/13 16:07:33.916202559,121,800000000,gnss_link,1,1,55.867285331410336,37.69139464054169,150.20698305778205,0.09,0.0,0.0,0.0,0.09,0.0,0.0,0.0,0.36,2
2026/02/13 16:07:34.75766921,121,900000000,gnss_link,1,1,55.86728533046682,37.69139356771766,150.20693586207926,0.09,0.0,0.0,0.0,0.09,0.0,0.0,0.0,0.36,2
2026/02/13 16:07:34.244041146,122,0,gnss_link,1,1,55.867285329523355,37.691392494962265,150.2069795615971,0.09,0.0,0.0,0.0,0.09,0.0,0.0,0.0,0.36,2
2026/02/13 16:07:34.402580493,122,100000000,gnss_link,1,1,55.86728532857973,37.691391422016906,150.20669024437666,0.09,0.0,0.0,0.0,0.09,0.0,0.0,0.0,0.36,2
2026/02/13 16:07:34.557576337,122,200000000,gnss_link,1,1,55.867285327636154,37.69139034913616,150.20700671058148,0.09,0.0,0.0,0.0,0.09,0.0,0.0,0.0,0.36,2
2026/02/13 16:07:34.714877356,122,300000000,gnss_link,1,1,55.86728532669266,37.69138927638102,150.20699208043516,0.09,0.0,0.0,0.0,0.09,0.0,0.0,0.0,0.36,2
2026/02/13 16:07:34.881171120,122,400000000,gnss_link,1,1,55.867285325748036,37.6913882023415,150.20697216317058,0.09,0.0,0.0,0.0,0.09,0.0,0.0,0.0,0.36,2
2026/02/13 16:07:35.49202166,122,500000000,gnss_link,1,1,55.86728532469668,37.69138700708744,150.2067724717781,0.09,0.0,0.0,0.0,0.09,0.0,0.0,0.0,0.36,2
2026/02/13 16:07:35.206970546,122,600000000,gnss_link,1,1,55.86728532353971,37.69138569175545,150.20674497727305,0.09,0.0,0.0,0.0,0.09,0.0,0.0,0.0,0.36,2
2026/02/13 16:07:35.364655456,122,700000000,gnss_link,1,1,55.86728532234068,37.691384328415865,150.20701071619987,0.09,0.0,0.0,0.0,0.09,0.0,0.0,0.0,0.36,2
2026/02/13 16:07:35.518794014,122,800000000,gnss_link,1,1,55.867285321073375,37.69138288749778,150.20696889609098,0.09,0.0,0.0,0.0,0.09,0.0,0.0,0.0,0.36,2
2026/02/13 16:07:35.680295697,122,900000000,gnss_link,1,1,55.86728531978522,37.691381422618825,150.20682861562818,0.09,0.0,0.0,0.0,0.09,0.0,0.0,0.0,0.36,2
2026/02/13 16:07:35.819523784,123,0,gnss_link,1,1,55.86728531843693,37.69137988907916,150.20701909717172,0.09,0.0,0.0,0.0,0.09,0.0,0.0,0.0,0.36,2
2026/02/13 16:07:35.978481337,123,100000000,gnss_link,1,1,55.867285317046715,37.691378308071165,150.20695414673537,0.09,0.0,0.0,0.0,0.09,0.0,0.0,0.0,0.36,2
2026/02/13 16:07:36.127244065,123,200000000,gnss_link,1,1,55.86728531565094,37.69137672062877,150.20683680009097,0.09,0.0,0.0,0.0,0.09,0.0,0.0,0.0,0.36,2
2026/02/13 16:07:36.284640844,123,300000000,gnss_link,1,1,55.867285314247276,37.691375124291554,150.2069708025083,0.09,0.0,0.0,0.0,0.09,0.0,0.0,0.0,0.36,2
2026/02/13 16:07:36.434060661,123,400000000,gnss_link,1,1,55.86728531284352,37.69137352788668,150.2067990899086,0.09,0.0,0.0,0.0,0.09,0.0,0.0,0.0,0.36,2
2026/02/13 16:07:36.583096596,123,500000000,gnss_link,1,1,55.8672853114396,37.691371931318564,150.20680750906467,0.09,0.0,0.0,0.0,0.09,0.0,0.0,0.0,0.36,2
2026/02/13 16:07:36.736103080,123,600000000,gnss_link,1,1,55.867285310035754,37.69137033486188,150.20701106172055,0.09,0.0,0.0,0.0,0.09,0.0,0.0,0.0,0.36,2
2026/02/13 16:07:36.890002315,123,700000000,gnss_link,1,1,55.86728530863193,37.69136873844037,150.20673395320773,0.09,0.0,0.0,0.0,0.09,0.0,0.0,0.0,0.36,2
2026/02/13 16:07:37.45904487,123,800000000,gnss_link,1,1,55.867285307227974,37.691367141890886,150.2068472346291,0.09,0.0,0.0,0.0,0.09,0.0,0.0,0.0,0.36,2
2026/02/13 16:07:37.212742824,123,900000000,gnss_link,1,1,55.86728530582425,37.69136554561752,150.20700775273144,0.09,0.0,0.0,0.0,0.09,0.0,0.0,0.0,0.36,2
2026/02/13 16:07:37.382817533,124,0,gnss_link,1,1,55.867285304420314,37.69136394913605,150.20685489475727,0.09,0.0,0.0,0.0,0.09,0.0,0.0,0.0,0.36,2
2026/02/13 16:07:37.541503623,124,100000000,gnss_link,1,1,55.867285303016324,37.69136235263365,150.20701165311038,0.09,0.0,0.0,0.0,0.09,0.0,0.0,0.0,0.36,2
2026/02/13 16:07:37.693526159,124,200000000,gnss_link,1,1,55.86728530161233,37.69136075613516,150.2070037126541,0.09,0.0,0.0,0.0,0.09,0.0,0.0,0.0,0.36,2
2026/02/13 16:07:37.846471024,124,300000000,gnss_link,1,1,55.86728530020832,37.69135915965228,150.206925034523,0.09,0.0,0.0,0.0,0.09,0.0,0.0,0.0,0.36,2
2026/02/13 16:07:38.472387,124,400000000,gnss_link,1,1,55.867285298804326,37.691357563203,150.20697089098394,0.09,0.0,0.0,0.0,0.09,0.0,0.0,0.0,0.36,2
2026/02/13 16:07:38.155871914,124,500000000,gnss_link,1,1,55.867285297400336,37.691355966781735,150.20696208253503,0.09,0.0,0.0,0.0,0.09,0.0,0.0,0.0,0.36,2
2026/02/13 16:07:38.323127333,124,600000000,gnss_link,1,1,55.86728529599625,37.69135437025921,150.20695313159376,0.09,0.0,0.0,0.0,0.09,0.0,0.0,0.0,0.36,2
2026/02/13 16:07:38.479999240,124,700000000,gnss_link,1,1,55.86728529459223,37.69135277385716,150.20662464480847,0.09,0.0,0.0,0.0,0.09,0.0,0.0,0.0,0.36,2
2026/02/13 16:07:38.630871300,124,800000000,gnss_link,1,1,55.86728529318805,37.69135117729651,150.20697570126504,0.09,0.0,0.0,0.0,0.09,0.0,0.0,0.0,0.36,2
2026/02/13 16:07:38.783718960,124,900000000,gnss_link,1,1,55.86728529178405,37.69134958095796,150.20701779425144,0.09,0.0,0.0,0.0,0.09,0.0,0.0,0.0,0.36,2
2026/02/13 16:07:38.933800226,125,0,gnss_link,1,1,55.867285290379826,37.6913479843947,150.20655681565404,0.09,0.0,0.0,0.0,0.09,0.0,0.0,0.0,0.36,2
2026/02/13 16:07:39.94719739,125,100000000,gnss_link,1,1,55.867285288975644,37.69134638790157,150.2069546636194,0.09,0.0,0.0,0.0,0.09,0.0,0.0,0.0,0.36,2
2026/02/13 16:07:39.244525473,125,200000000,gnss_link,1,1,55.867285287571534,37.69134479151995,150.20700009539723,0.09,0.0,0.0,0.0,0.09,0.0,0.0,0.0,0.36,2
2026/02/13 16:07:39.415307001,125,300000000,gnss_link,1,1,55.86728528616738,37.691343195115834,150.206494118087,0.09,0.0,0.0,0.0,0.09,0.0,0.0,0.0,0.36,2
2026/02/13 16:07:39.571190359,125,400000000,gnss_link,1,1,55.86728528476319,37.69134159865516,150.20700796041638,0.09,0.0,0.0,0.0,0.09,0.0,0.0,0.0,0.36,2
2026/02/13 16:07:39.736807676,125,500000000,gnss_link,1,1,55.867285283359095,37.69134000235037,150.2069695768878,0.09,0.0,0.0,0.0,0.09,0.0,0.0,0.0,0.36,2
2026/02/13 16:07:39.897423198,125,600000000,gnss_link,1,1,55.86728528195471,37.69133840573869,150.20671812351793,0.09,0.0,0.0,0.0,0.09,0.0,0.0,0.0,0.36,2
2026/02/13 16:07:40.79298806,125,700000000,gnss_link,1,1,55.86728528055049,37.691336809344634,150.20700754225254,0.09,0.0,0.0,0.0,0.09,0.0,0.0,0.0,0.36,2
2026/02/13 16:07:40.289272000,125,800000000,gnss_link,1,1,55.86728527914622,37.69133521291057,150.2069792067632,0.09,0.0,0.0,0.0,0.09,0.0,0.0,0.0,0.36,2
2026/02/13 16:07:40.469659506,125,900000000,gnss_link,1,1,55.86728527802902,37.691333928923335,150.20700239017606,0.09,0.0,0.0,0.0,0.09,0.0,0.0,0.0,0.36,2
2026/02/13 16:07:40.641236482,126,0,gnss_link,1,1,55.86728527714878,37.69133293059317,150.20697248727083,0.09,0.0,0.0,0.0,0.09,0.0,0.0,0.0,0.36,2
2026/02/13 16:07:40.821181389,126,100000000,gnss_link,1,1,55.86728527646308,37.69133215064675,150.2070132251829,0.09,0.0,0.0,0.0,0.09,0.0,0.0,0.0,0.36,2
2026/02/13 16:07:40.973955868,126,200000000,gnss_link,1,1,55.86728527578366,37.6913313779608,150.20690797828138,0.09,0.0,0.0,0.0,0.09,0.0,0.0,0.0,0.36,2
2026/02/13 16:07:41.138368917,126,300000000,gnss_link,1,1,55.867285275104216,37.69133060525393,150.2069879025221,0.09,0.0,0.0,0.0,0.09,0.0,0.0,0.0,0.36,2
2026/02/13 16:07:41.306063036,126,400000000,gnss_link,1,1,55.86728527442471,37.69132983249279,150.20685239788145,0.09,0.0,0.0,0.0,0.09,0.0,0.0,0.0,0.36,2
2026/02/13 16:07:41.467964425,126,500000000,gnss_link,1,1,55.86728527374531,37.69132905985049,150.20699548069388,0.09,0.0,0.0,0.0,0.09,0.0,0.0,0.0,0.36,2
2026/02/13 16:07:41.628232905,126,600000000,gnss_link,1,1,55.86728527306589,37.69132828718184,150.20699413586408,0.09,0.0,0.0,0.0,0.09,0.0,0.0,0.0,0.36,2
2026/02/13 16:07:41.795224681,126,700000000,gnss_link,1,1,55.867285272386404,37.69132751445565,150.20694805961102,0.09,0.0,0.0,0.0,0.09,0.0,0.0,0.0,0.36,2
2026/02/13 16:07:41.954383330,126,800000000,gnss_link,1,1,55.86728527170692,37.69132674174206,150.20671249646693,0.09,0.0,0.0,0.0,0.09,0.0,0.0,0.0,0.36,2
2026/02/13 16:07:42.111196930,126,900000000,gnss_link,1,1,55.86728527102745,37.69132596902383,150.20691544376314,0.09,0.0,0.0,0.0,0.09,0.0,0.0,0.0,0.36,2
2026/02/13 16:07:42.273299455,127,0,gnss_link,1,1,55.867285270348034,37.691325196385584,150.20702267903835,0.09,0.0,0.0,0.0,0.09,0.0,0.0,0.0,0.36,2
2026/02/13 16:07:42.437345177,127,100000000,gnss_link,1,1,55.86728526966852,37.691324423658735,150.2068845424801,0.09,0.0,0.0,0.0,0.09,0.0,0.0,0.0,0.36,2
2026/02/13 16:07:42.600571127,127,200000000,gnss_link,1,1,55.86728526898909,37.69132365101563,150.20661160256714,0.09,0.0,0.0,0.0,0.09,0.0,0.0,0.0,0.36,2
2026/02/13 16:07:42.760671500,127,300000000,gnss_link,1,1,55.86728526830955,37.69132287825723,150.20680678263307,0.09,0.0,0.0,0.0,0.09,0.0,0.0,0.0,0.36,2
2026/02/13 16:07:42.924560463,127,400000000,gnss_link,1,1,55.86728526763009,37.691322105596974,150.20698904898018,0.09,0.0,0.0,0.0,0.09,0.0,0.0,0.0,0.36,2
2026/02/13 16:07:43.86622658,127,500000000,gnss_link,1,1,55.86728526695057,37.69132133286968,150.2069925684482,0.09,0.0,0.0,0.0,0.09,0.0,0.0,0.0,0.36,2
2026/02/13 16:07:43.263538613,127,600000000,gnss_link,1,1,55.86728526619209,37.69132047291606,150.20699739456177,0.09,0.0,0.0,0.0,0.09,0.0,0.0,0.0,0.36,2
2026/02/13 16:07:43.419042001,127,700000000,gnss_link,1,1,55.867285265112606,37.69131924692205,150.20681369677186,0.09,0.0,0.0,0.0,0.09,0.0,0.0,0.0,0.36,2
2026/02/13 16:07:43.571533951,127,800000000,gnss_link,1,1,55.867285263996465,37.691317977685124,150.20675309188664,0.09,0.0,0.0,0.0,0.09,0.0,0.0,0.0,0.36,2
2026/02/13 16:07:43.731109152,127,900000000,gnss_link,1,1,55.86728526288012,37.691316708541905,150.2069520112127,0.09,0.0,0.0,0.0,0.09,0.0,0.0,0.0,0.36,2
2026/02/13 16:07:43.886352748,128,0,gnss_link,1,1,55.86728526176372,37.6913154392947,150.20701076462865,0.09,0.0,0.0,0.0,0.09,0.0,0.0,0.0,0.36,2
2026/02/13 16:07:44.50822469,128,100000000,gnss_link,1,1,55.86728526064722,37.69131417023287,150.20702031534165,0.09,0.0,0.0,0.0,0.09,0.0,0.0,0.0,0.36,2
2026/02/13 16:07:44.206968693,128,200000000,gnss_link,1,1,55.86728525948486,37.69131284920159,150.20689275115728,0.09,0.0,0.0,0.0,0.09,0.0,0.0,0.0,0.36,2
2026/02/13 16:07:44.362089058,128,300000000,gnss_link,1,1,55.86728525828818,37.691311489068205,150.20669057406485,0.09,0.0,0.0,0.0,0.09,0.0,0.0,0.0,0.36,2
2026/02/13 16:07:44.517709711,128,400000000,gnss_link,1,1,55.867285257091424,37.691310128857815,150.2068347381428,0.09,0.0,0.0,0.0,0.09,0.0,0.0,0.0,0.36,2
2026/02/13 16:07:44.682199980,128,500000000,gnss_link,1,1,55.86728525589469,37.69130876868236,150.20696481876075,0.09,0.0,0.0,0.0,0.09,0.0,0.0,0.0,0.36,2
2026/02/13 16:07:44.854813950,128,600000000,gnss_link,1,1,55.867285254697855,37.69130740840475,150.2069862028584,0.09,0.0,0.0,0.0,0.09,0.0,0.0,0.0,0.36,2
2026/02/13 16:07:45.19968198,128,700000000,gnss_link,1,1,55.86728525350106,37.691306048210144,150.20697976835072,0.09,0.0,0.0,0.0,0.09,0.0,0.0,0.0,0.36,2
2026/02/13 16:07:45.170289634,128,800000000,gnss_link,1,1,55.867285252304285,37.691304688039615,150.20689793862402,0.09,0.0,0.0,0.0,0.09,0.0,0.0,0.0,0.36,2
2026/02/13 16:07:45.332636848,128,900000000,gnss_link,1,1,55.867285251107475,37.69130332784619,150.2067613583058,0.09,0.0,0.0,0.0,0.09,0.0,0.0,0.0,0.36,2
2026/02/13 16:07:45.496032242,129,0,gnss_link,1,1,55.86728524991073,37.69130196774111,150.20701285917312,0.09,0.0,0.0,0.0,0.09,0.0,0.0,0.0,0.36,2
2026/02/13 16:07:45.650755342,129,100000000,gnss_link,1,1,55.867285248713856,37.691300607521406,150.2067970018834,0.09,0.0,0.0,0.0,0.09,0.0,0.0,0.0,0.36,2
2026/02/13 16:07:45.816581785,129,200000000,gnss_link,1,1,55.867285247517316,37.691299247454786,150.20685641188174,0.09,0.0,0.0,0.0,0.09,0.0,0.0,0.0,0.36,2
2026/02/13 16:07:45.976659010,129,300000000,gnss_link,1,1,55.86728524632047,37.69129788733971,150.20697790198028,0.09,0.0,0.0,0.0,0.09,0.0,0.0,0.0,0.36,2
2026/02/13 16:07:46.132425993,129,400000000,gnss_link,1,1,55.86728524512349,37.69129652706029,150.2070089560002,0.09,0.0,0.0,0.0,0.09,0.0,0.0,0.0,0.36,2
2026/02/13 16:07:46.292723596,129,500000000,gnss_link,1,1,55.86728524392651,37.69129516680048,150.20695924945176,0.09,0.0,0.0,0.0,0.09,0.0,0.0,0.0,0.36,2
2026/02/13 16:07:46.446994312,129,600000000,gnss_link,1,1,55.86728524272947,37.69129380650213,150.20685055013746,0.09,0.0,0.0,0.0,0.09,0.0,0.0,0.0,0.36,2
2026/02/13 16:07:46.605174042,129,700000000,gnss_link,1,1,55.86728524153249,37.69129244628651,150.20668003428727,0.09,0.0,0.0,0.0,0.09,0.0,0.0,0.0,0.36,2
2026/02/13 16:07:46.771753129,129,800000000,gnss_link,1,1,55.86728524033563,37.69129108622069,150.2069318043068,0.09,0.0,0.0,0.0,0.09,0.0,0.0,0.0,0.36,2
2026/02/13 16:07:46.933738673,129,900000000,gnss_link,1,1,55.86728523913859,37.69128972597289,150.20699821785092,0.09,0.0,0.0,0.0,0.09,0.0,0.0,0.0,0.36,2
2026/02/13 16:07:47.96219313,130,0,gnss_link,1,1,55.86728523794181,37.69128836596544,150.20697558205575,0.09,0.0,0.0,0.0,0.09,0.0,0.0,0.0,0.36,2
2026/02/13 16:07:47.249138143,130,100000000,gnss_link,1,1,55.86728523674471,37.691287005716454,150.20701678656042,0.09,0.0,0.0,0.0,0.09,0.0,0.0,0.0,0.36,2
2026/02/13 16:07:47.399635396,130,200000000,gnss_link,1,1,55.86728523554773,37.69128564560344,150.20699912589043,0.09,0.0,0.0,0.0,0.09,0.0,0.0,0.0,0.36,2
2026/02/13 16:07:47.556428189,130,300000000,gnss_link,1,1,55.8672852343506,37.691284285342284,150.20701511390507,0.09,0.0,0.0,0.0,0.09,0.0,0.0,0.0,0.36,2
2026/02/13 16:07:47.704686639,130,400000000,gnss_link,1,1,55.86728523131693,37.69128293666226,150.20677900128067,0.09,0.0,0.0,0.0,0.09,0.0,0.0,0.0,0.36,2
2026/02/13 16:07:47.856042230,130,500000000,gnss_link,1,1,55.86728521705236,37.69128159888059,150.2070079278201,0.09,0.0,0.0,0.0,0.09,0.0,0.0,0.0,0.36,2
2026/02/13 16:07:48.344582,130,600000000,gnss_link,1,1,55.867285205112125,37.69128022614886,150.2068676110357,0.09,0.0,0.0,0.0,0.09,0.0,0.0,0.0,0.36,2
2026/02/13 16:07:48.145833352,130,700000000,gnss_link,1,1,55.867285204407686,37.691278849349935,150.2070095418021,0.09,0.0,0.0,0.0,0.09,0.0,0.0,0.0,0.36,2
2026/02/13 16:07:48.291846399,130,800000000,gnss_link,1,1,55.867285205116666,37.691277455281636,150.20687720458955,0.09,0.0,0.0,0.0,0.09,0.0,0.0,0.0,0.36,2
2026/02/13 16:07:48.450119932,130,900000000,gnss_link,1,1,55.86728520965522,37.69127602662689,150.20701102074236,0.09,0.0,0.0,0.0,0.09,0.0,0.0,0.0,0.36,2
2026/02/13 16:07:48.589482463,131,0,gnss_link,1,1,55.86728521447193,37.69127457002175,150.20690294541419,0.09,0.0,0.0,0.0,0.09,0.0,0.0,0.0,0.36,2
2026/02/13 16:07:48.752943428,131,100000000,gnss_link,1,1,55.867285228263036,37.69127310289249,150.20697115082294,0.09,0.0,0.0,0.0,0.09,0.0,0.0,0.0,0.36,2
2026/02/13 16:07:48.896817358,131,200000000,gnss_link,1,1,55.86728525026026,37.69127161787187,150.20683172810823,0.09,0.0,0.0,0.0,0.09,0.0,0.0,0.0,0.36,2
2026/02/13 16:07:49.49974958,131,300000000,gnss_link,1,1,55.86728527442213,37.69127011373303,150.20700131729245,0.09,0.0,0.0,0.0,0.09,0.0,0.0,0.0,0.36,2
2026/02/13 16:07:49.213169623,131,400000000,gnss_link,1,1,55.86728530139737,37.69126857971108,150.20699920225888,0.09,0.0,0.0,0.0,0.09,0.0,0.0,0.0,0.36,2
2026/02/13 16:07:49.352709338,131,500000000,gnss_link,1,1,55.867285329899985,37.69126702070153,150.20702137611806,0.09,0.0,0.0,0.0,0.09,0.0,0.0,0.0,0.36,2
2026/02/13 16:07:49.498051486,131,600000000,gnss_link,1,1,55.86728535508214,37.69126544543887,150.20675369910896,0.09,0.0,0.0,0.0,0.09,0.0,0.0,0.0,0.36,2
2026/02/13 16:07:49.642940854,131,700000000,gnss_link,1,1,55.86728539897785,37.691263907154124,150.20685582328588,0.09,0.0,0.0,0.0,0.09,0.0,0.0,0.0,0.36,2
2026/02/13 16:07:49.794996552,131,800000000,gnss_link,1,1,55.867285448833506,37.691262354944364,150.2069591023028,0.09,0.0,0.0,0.0,0.09,0.0,0.0,0.0,0.36,2
2026/02/13 16:07:49.950992965,131,900000000,gnss_link,1,1,55.86728551086392,37.69126077403973,150.20699836686254,0.09,0.0,0.0,0.0,0.09,0.0,0.0,0.0,0.36,2
2026/02/13 16:07:50.113618017,132,0,gnss_link,1,1,55.86728558408498,37.69125922246513,150.20699265785515,0.09,0.0,0.0,0.0,0.09,0.0,0.0,0.0,0.36,2
2026/02/13 16:07:50.255398798,132,100000000,gnss_link,1,1,55.867285660473016,37.69125766133003,150.2068731682375,0.09,0.0,0.0,0.0,0.09,0.0,0.0,0.0,0.36,2
2026/02/13 16:07:50.402404255,132,200000000,gnss_link,1,1,55.867285748029744,37.69125609430845,150.2070330735296,0.09,0.0,0.0,0.0,0.09,0.0,0.0,0.0,0.36,2
2026/02/13 16:07:50.569509402,132,300000000,gnss_link,1,1,55.86728584181413,37.69125451821374,150.20674503874034,0.09,0.0,0.0,0.0,0.09,0.0,0.0,0.0,0.36,2
2026/02/13 16:07:50.704979233,132,400000000,gnss_link,1,1,55.86728593115052,37.691252972401834,150.2070110719651,0.09,0.0,0.0,0.0,0.09,0.0,0.0,0.0,0.36,2
2026/02/13 16:07:50.844155374,132,500000000,gnss_link,1,1,55.86728603202524,37.69125144331019,150.20700928475708,0.09,0.0,0.0,0.0,0.09,0.0,0.0,0.0,0.36,2
2026/02/13 16:07:50.995560605,132,600000000,gnss_link,1,1,55.8672861443638,37.69124988820105,150.20700098294765,0.09,0.0,0.0,0.0,0.09,0.0,0.0,0.0,0.36,2
2026/02/13 16:07:51.141678778,132,700000000,gnss_link,1,1,55.867286262835925,37.69124835691819,150.20674726180732,0.09,0.0,0.0,0.0,0.09,0.0,0.0,0.0,0.36,2
2026/02/13 16:07:51.284297211,132,800000000,gnss_link,1,1,55.86728639081211,37.69124683168111,150.2067890074104,0.09,0.0,0.0,0.0,0.09,0.0,0.0,0.0,0.36,2
2026/02/13 16:07:51.430443237,132,900000000,gnss_link,1,1,55.86728650372907,37.69124535340181,150.2070016823709,0.09,0.0,0.0,0.0,0.09,0.0,0.0,0.0,0.36,2
2026/02/13 16:07:51.575386178,133,0,gnss_link,1,1,55.86728664316311,37.69124394273359,150.2070117117837,0.09,0.0,0.0,0.0,0.09,0.0,0.0,0.0,0.36,2
2026/02/13 16:07:51.717085476,133,100000000,gnss_link,1,1,55.867286836817094,37.6912426094376,150.20703277830034,0.09,0.0,0.0,0.0,0.09,0.0,0.0,0.0,0.36,2
2026/02/13 16:07:51.870102504,133,200000000,gnss_link,1,1,55.86728705751922,37.691241275111075,150.20687408931553,0.09,0.0,0.0,0.0,0.09,0.0,0.0,0.0,0.36,2
2026/02/13 16:07:52.18019771,133,300000000,gnss_link,1,1,55.86728728067079,37.69123992016132,150.20690362341702,0.09,0.0,0.0,0.0,0.09,0.0,0.0,0.0,0.36,2
2026/02/13 16:07:52.162571759,133,400000000,gnss_link,1,1,55.86728749457956,37.6912385196298,150.20693461876363,0.09,0.0,0.0,0.0,0.09,0.0,0.0,0.0,0.36,2
2026/02/13 16:07:52.311664775,133,500000000,gnss_link,1,1,55.86728769052199,37.69123703412105,150.20703214406967,0.09,0.0,0.0,0.0,0.09,0.0,0.0,0.0,0.36,2
2026/02/13 16:07:52.451943576,133,600000000,gnss_link,1,1,55.867287874816725,37.69123546290562,150.20698774978518,0.09,0.0,0.0,0.0,0.09,0.0,0.0,0.0,0.36,2
2026/02/13 16:07:52.599627569,133,700000000,gnss_link,1,1,55.86728805747247,37.69123382814255,150.2070177840069,0.09,0.0,0.0,0.0,0.09,0.0,0.0,0.0,0.36,2
2026/02/13 16:07:52.742374413,133,800000000,gnss_link,1,1,55.86728822159297,37.6912321310158,150.20701370202005,0.09,0.0,0.0,0.0,0.09,0.0,0.0,0.0,0.36,2
2026/02/13 16:07:52.883853189,133,900000000,gnss_link,1,1,55.867288378877305,37.69123036327608,150.20695062167943,0.09,0.0,0.0,0.0,0.09,0.0,0.0,0.0,0.36,2
2026/02/13 16:07:53.37531483,134,0,gnss_link,1,1,55.867288525367655,37.691228550497485,150.20693306811154,0.09,0.0,0.0,0.0,0.09,0.0,0.0,0.0,0.36,2
2026/02/13 16:07:53.178870883,134,100000000,gnss_link,1,1,55.8672886635128,37.69122666848647,150.20696252211928,0.09,0.0,0.0,0.0,0.09,0.0,0.0,0.0,0.36,2
2026/02/13 16:07:53.346809934,134,200000000,gnss_link,1,1,55.86728878360281,37.691224736926685,150.2068768227473,0.09,0.0,0.0,0.0,0.09,0.0,0.0,0.0,0.36,2
2026/02/13 16:07:53.500372926,134,300000000,gnss_link,1,1,55.867288892907816,37.69122273870144,150.2067704666406,0.09,0.0,0.0,0.0,0.09,0.0,0.0,0.0,0.36,2
2026/02/13 16:07:53.641695748,134,400000000,gnss_link,1,1,55.86728898400901,37.691220688777435,150.20690578129143,0.09,0.0,0.0,0.0,0.09,0.0,0.0,0.0,0.36,2
2026/02/13 16:07:53.785058070,134,500000000,gnss_link,1,1,55.86728906954749,37.6912185965619,150.20704009849578,0.09,0.0,0.0,0.0,0.09,0.0,0.0,0.0,0.36,2
2026/02/13 16:07:53.925595744,134,600000000,gnss_link,1,1,55.86728913213561,37.6912164305817,150.20705184154212,0.09,0.0,0.0,0.0,0.09,0.0,0.0,0.0,0.36,2
2026/02/13 16:07:54.64544997,134,700000000,gnss_link,1,1,55.86728918817507,37.69121419516756,150.20691044908017,0.09,0.0,0.0,0.0,0.09,0.0,0.0,0.0,0.36,2
2026/02/13 16:07:54.200146120,134,800000000,gnss_link,1,1,55.86728922337805,37.69121192206564,150.20691837836057,0.09,0.0,0.0,0.0,0.09,0.0,0.0,0.0,0.36,2
2026/02/13 16:07:54.347116171,134,900000000,gnss_link,1,1,55.86728925836487,37.691209570977335,150.20678640902042,0.09,0.0,0.0,0.0,0.09,0.0,0.0,0.0,0.36,2
2026/02/13 16:07:54.491722140,135,0,gnss_link,1,1,55.867289290925484,37.691207098301696,150.20687699038535,0.09,0.0,0.0,0.0,0.09,0.0,0.0,0.0,0.36,2
2026/02/13 16:07:54.631388349,135,100000000,gnss_link,1,1,55.86728931298791,37.69120456375978,150.20702471677214,0.09,0.0,0.0,0.0,0.09,0.0,0.0,0.0,0.36,2
2026/02/13 16:07:54.774026316,135,200000000,gnss_link,1,1,55.867289328987084,37.69120201356029,150.20700304955244,0.09,0.0,0.0,0.0,0.09,0.0,0.0,0.0,0.36,2
2026/02/13 16:07:54.927821790,135,300000000,gnss_link,1,1,55.867289343338,37.69119938652296,150.20710616465658,0.09,0.0,0.0,0.0,0.09,0.0,0.0,0.0,0.36,2
2026/02/13 16:07:55.75735740,135,400000000,gnss_link,1,1,55.86728935467677,37.69119666628005,150.2070059645921,0.09,0.0,0.0,0.0,0.09,0.0,0.0,0.0,0.36,2
2026/02/13 16:07:55.282123735,135,500000000,gnss_link,1,1,55.86728936693483,37.69119385790598,150.20699349045753,0.09,0.0,0.0,0.0,0.09,0.0,0.0,0.0,0.36,2
2026/02/13 16:07:55.473869506,135,600000000,gnss_link,1,1,55.86728938054015,37.691190946978566,150.20701403729618,0.09,0.0,0.0,0.0,0.09,0.0,0.0,0.0,0.36,2
2026/02/13 16:07:55.649364385,135,700000000,gnss_link,1,1,55.867289398961525,37.69118793063442,150.20702315494418,0.09,0.0,0.0,0.0,0.09,0.0,0.0,0.0,0.36,2
2026/02/13 16:07:55.777090781,135,800000000,gnss_link,1,1,55.86728941396689,37.691184809638465,150.20689136907458,0.09,0.0,0.0,0.0,0.09,0.0,0.0,0.0,0.36,2
2026/02/13 16:07:55.938049488,135,900000000,gnss_link,1,1,55.86728942207139,37.691181654669826,150.20697219856083,0.09,0.0,0.0,0.0,0.09,0.0,0.0,0.0,0.36,2
2026/02/13 16:07:56.90581962,136,0,gnss_link,1,1,55.867289426729855,37.691178540073494,150.2070050192997,0.09,0.0,0.0,0.0,0.09,0.0,0.0,0.0,0.36,2
2026/02/13 16:07:56.247445170,136,100000000,gnss_link,1,1,55.867289432016705,37.69117546798145,150.2070115217939,0.09,0.0,0.0,0.0,0.09,0.0,0.0,0.0,0.36,2
2026/02/13 16:07:56.412338704,136,200000000,gnss_link,1,1,55.867289432325194,37.69117245866323,150.20694960094988,0.09,0.0,0.0,0.0,0.09,0.0,0.0,0.0,0.36,2
2026/02/13 16:07:56.595446111,136,300000000,gnss_link,1,1,55.86728943150951,37.691169538806115,150.20703467540443,0.09,0.0,0.0,0.0,0.09,0.0,0.0,0.0,0.36,2
2026/02/13 16:07:56.767279458,136,400000000,gnss_link,1,1,55.86728942494746,37.69116668586321,150.20690350234509,0.09,0.0,0.0,0.0,0.09,0.0,0.0,0.0,0.36,2
2026/02/13 16:07:56.942958095,136,500000000,gnss_link,1,1,55.86728940456854,37.691163973163334,150.20697830058634,0.09,0.0,0.0,0.0,0.09,0.0,0.0,0.0,0.36,2
2026/02/13 16:07:57.115133810,136,600000000,gnss_link,1,1,55.867289362812,37.69116143905661,150.20712312217802,0.09,0.0,0.0,0.0,0.09,0.0,0.0,0.0,0.36,2
2026/02/13 16:07:57.297471488,136,700000000,gnss_link,1,1,55.86728928369251,37.69115918884047,150.2068639965728,0.09,0.0,0.0,0.0,0.09,0.0,0.0,0.0,0.36,2
2026/02/13 16:07:57.482646256,136,800000000,gnss_link,1,1,55.86728894689274,37.69115770059028,150.20706182625145,0.09,0.0,0.0,0.0,0.09,0.0,0.0,0.0,0.36,2
2026/02/13 16:07:57.638021935,136,900000000,gnss_link,1,1,55.86728850597462,37.691156322174585,150.20704794488847,0.09,0.0,0.0,0.0,0.09,0.0,0.0,0.0,0.36,2
2026/02/13 16:07:57.795616132,137,0,gnss_link,1,1,55.86728808347455,37.69115492358213,150.2069892771542,0.09,0.0,0.0,0.0,0.09,0.0,0.0,0.0,0.36,2
2026/02/13 16:07:57.966297910,137,100000000,gnss_link,1,1,55.86728776199436,37.691153560835254,150.20699725765735,0.09,0.0,0.0,0.0,0.09,0.0,0.0,0.0,0.36,2
2026/02/13 16:07:58.134521345,137,200000000,gnss_link,1,1,55.867287586906976,37.69115224582745,150.20690191257745,0.09,0.0,0.0,0.0,0.09,0.0,0.0,0.0,0.36,2
2026/02/13 16:07:58.312848087,137,300000000,gnss_link,1,1,55.867287420678444,37.69115085089749,150.20703198947012,0.09,0.0,0.0,0.0,0.09,0.0,0.0,0.0,0.36,2
2026/02/13 16:07:58.497814080,137,400000000,gnss_link,1,1,55.86728721592522,37.691149412587166,150.20690086856484,0.09,0.0,0.0,0.0,0.09,0.0,0.0,0.0,0.36,2
2026/02/13 16:07:58.670844976,137,500000000,gnss_link,1,1,55.867286989732705,37.69114797306939,150.207028105855,0.09,0.0,0.0,0.0,0.09,0.0,0.0,0.0,0.36,2
2026/02/13 16:07:58.856583829,137,600000000,gnss_link,1,1,55.86728674686743,37.69114662030616,150.2069430751726,0.09,0.0,0.0,0.0,0.09,0.0,0.0,0.0,0.36,2
2026/02/13 16:07:59.39833721,137,700000000,gnss_link,1,1,55.8672864855987,37.69114536031501,150.20703762676567,0.09,0.0,0.0,0.0,0.09,0.0,0.0,0.0,0.36,2
2026/02/13 16:07:59.242662628,137,800000000,gnss_link,1,1,55.8672861848881,37.691144113088455,150.20685597043484,0.09,0.0,0.0,0.0,0.09,0.0,0.0,0.0,0.36,2
2026/02/13 16:07:59.435883550,137,900000000,gnss_link,1,1,55.86728586820138,37.6911428532732,150.20704128034413,0.09,0.0,0.0,0.0,0.09,0.0,0.0,0.0,0.36,2
2026/02/13 16:07:59.619476177,138,0,gnss_link,1,1,55.86728552951282,37.6911415609503,150.2067879019305,0.09,0.0,0.0,0.0,0.09,0.0,0.0,0.0,0.36,2
2026/02/13 16:07:59.808343444,138,100000000,gnss_link,1,1,55.86728517173911,37.69114027419854,150.20704385638237,0.09,0.0,0.0,0.0,0.09,0.0,0.0,0.0,0.36,2
2026/02/13 16:08:00.12457464,138,200000000,gnss_link,1,1,55.86728484277304,37.691138945517395,150.2070299834013,0.09,0.0,0.0,0.0,0.09,0.0,0.0,0.0,0.36,2
2026/02/13 16:08:00.185455142,138,300000000,gnss_link,1,1,55.867284521308456,37.69113756098493,150.20703744981438,0.09,0.0,0.0,0.0,0.09,0.0,0.0,0.0,0.36,2
2026/02/13 16:08:00.343226982,138,400000000,gnss_link,1,1,55.867284235287265,37.69113614068645,150.2067952286452,0.09,0.0,0.0,0.0,0.09,0.0,0.0,0.0,0.36,2
2026/02/13 16:08:00.519267778,138,500000000,gnss_link,1,1,55.86728396667677,37.69113467858498,150.20699476450682,0.09,0.0,0.0,0.0,0.09,0.0,0.0,0.0,0.36,2
2026/02/13 16:08:00.686877695,138,600000000,gnss_link,1,1,55.86728372381433,37.69113322049803,150.2070634784177,0.09,0.0,0.0,0.0,0.09,0.0,0.0,0.0,0.36,2
2026/02/13 16:08:00.847069751,138,700000000,gnss_link,1,1,55.86728349371496,37.691131735297574,150.2070367578417,0.09,0.0,0.0,0.0,0.09,0.0,0.0,0.0,0.36,2
2026/02/13 16:08:01.16307644,138,800000000,gnss_link,1,1,55.86728327972591,37.691130186382054,150.20705397147685,0.09,0.0,0.0,0.0,0.09,0.0,0.0,0.0,0.36,2
2026/02/13 16:08:01.203957677,138,900000000,gnss_link,1,1,55.867283095815566,37.69112859465222,150.20699196122587,0.09,0.0,0.0,0.0,0.09,0.0,0.0,0.0,0.36,2
2026/02/13 16:08:01.381897892,139,0,gnss_link,1,1,55.86728291519453,37.691126920606386,150.20695916935802,0.09,0.0,0.0,0.0,0.09,0.0,0.0,0.0,0.36,2
2026/02/13 16:08:01.539673405,139,100000000,gnss_link,1,1,55.86728277251972,37.691125173940186,150.2068945178762,0.09,0.0,0.0,0.0,0.09,0.0,0.0,0.0,0.36,2
2026/02/13 16:08:01.700070582,139,200000000,gnss_link,1,1,55.8672826536867,37.6911233902525,150.20678377337754,0.09,0.0,0.0,0.0,0.09,0.0,0.0,0.0,0.36,2
2026/02/13 16:08:01.858119588,139,300000000,gnss_link,1,1,55.867282551770536,37.69112153088892,150.20699139032513,0.09,0.0,0.0,0.0,0.09,0.0,0.0,0.0,0.36,2
2026/02/13 16:08:02.22000096,139,400000000,gnss_link,1,1,55.86728246567974,37.69111963362424,150.20706806052476,0.09,0.0,0.0,0.0,0.09,0.0,0.0,0.0,0.36,2
2026/02/13 16:08:02.176698148,139,500000000,gnss_link,1,1,55.86728239298545,37.69111768298887,150.20700518786907,0.09,0.0,0.0,0.0,0.09,0.0,0.0,0.0,0.36,2
2026/02/13 16:08:02.331876688,139,600000000,gnss_link,1,1,55.8672823279281,37.69111565717607,150.20700260531157,0.09,0.0,0.0,0.0,0.09,0.0,0.0,0.0,0.36,2
2026/02/13 16:08:02.492378836,139,700000000,gnss_link,1,1,55.86728228294964,37.6911136711014,150.20705857500434,0.09,0.0,0.0,0.0,0.09,0.0,0.0,0.0,0.36,2
2026/02/13 16:08:02.659005632,139,800000000,gnss_link,1,1,55.86728223738281,37.69111170604242,150.20698516722769,0.09,0.0,0.0,0.0,0.09,0.0,0.0,0.0,0.36,2
2026/02/13 16:08:02.818607006,139,900000000,gnss_link,1,1,55.86728219890065,37.691109708829984,150.20699781924486,0.09,0.0,0.0,0.0,0.09,0.0,0.0,0.0,0.36,2
2026/02/13 16:08:02.987749116,140,0,gnss_link,1,1,55.86728217221251,37.691107684305386,150.20703184138983,0.09,0.0,0.0,0.0,0.09,0.0,0.0,0.0,0.36,2
2026/02/13 16:08:03.151920146,140,100000000,gnss_link,1,1,55.8672821463779,37.69110566110998,150.20677173882723,0.09,0.0,0.0,0.0,0.09,0.0,0.0,0.0,0.36,2
2026/02/13 16:08:03.318694870,140,200000000,gnss_link,1,1,55.86728212685682,37.69110363514816,150.20696716476232,0.09,0.0,0.0,0.0,0.09,0.0,0.0,0.0,0.36,2
2026/02/13 16:08:03.480162862,140,300000000,gnss_link,1,1,55.867282108046865,37.691101617453405,150.20704405475408,0.09,0.0,0.0,0.0,0.09,0.0,0.0,0.0,0.36,2
2026/02/13 16:08:03.645826678,140,400000000,gnss_link,1,1,55.867282093384695,37.6910996015232,150.20701107848436,0.09,0.0,0.0,0.0,0.09,0.0,0.0,0.0,0.36,2
2026/02/13 16:08:03.815082428,140,500000000,gnss_link,1,1,55.86728207942652,37.691097582946526,150.20706095453352,0.09,0.0,0.0,0.0,0.09,0.0,0.0,0.0,0.36,2
2026/02/13 16:08:03.992442312,140,600000000,gnss_link,1,1,55.86728206917488,37.69109556934346,150.20694343745708,0.09,0.0,0.0,0.0,0.09,0.0,0.0,0.0,0.36,2
2026/02/13 16:08:04.170856753,140,700000000,gnss_link,1,1,55.8672820650025,37.69109360226234,150.2070467416197,0.09,0.0,0.0,0.0,0.09,0.0,0.0,0.0,0.36,2
2026/02/13 16:08:04.353360761,140,800000000,gnss_link,1,1,55.86728206528964,37.69109177310188,150.20693150069565,0.09,0.0,0.0,0.0,0.09,0.0,0.0,0.0,0.36,2
2026/02/13 16:08:04.542363984,140,900000000,gnss_link,1,1,55.86728206343347,37.69108999358819,150.20697648543864,0.09,0.0,0.0,0.0,0.09,0.0,0.0,0.0,0.36,2
2026/02/13 16:08:04.736713373,141,0,gnss_link,1,1,55.867282061280456,37.69108820663943,150.20681752823293,0.09,0.0,0.0,0.0,0.09,0.0,0.0,0.0,0.36,2
2026/02/13 16:08:04.948226344,141,100000000,gnss_link,1,1,55.86728206668121,37.691086447815024,150.20704514253885,0.09,0.0,0.0,0.0,0.09,0.0,0.0,0.0,0.36,2
2026/02/13 16:08:05.172228398,141,200000000,gnss_link,1,1,55.867282080281846,37.691084810708354,150.20693658385426,0.09,0.0,0.0,0.0,0.09,0.0,0.0,0.0,0.36,2
2026/02/13 16:08:05.397796946,141,300000000,gnss_link,1,1,55.86728209633668,37.69108327822439,150.20697724446654,0.09,0.0,0.0,0.0,0.09,0.0,0.0,0.0,0.36,2
2026/02/13 16:08:05.627526895,141,400000000,gnss_link,1,1,55.86728212449928,37.69108190971654,150.2069056360051,0.09,0.0,0.0,0.0,0.09,0.0,0.0,0.0,0.36,2
2026/02/13 16:08:05.863866676,141,500000000,gnss_link,1,1,55.86728215566242,37.691080566461935,150.20692313555628,0.09,0.0,0.0,0.0,0.09,0.0,0.0,0.0,0.36,2
2026/02/13 16:08:06.116926501,141,600000000,gnss_link,1,1,55.867282192372826,37.69107919242977,150.20685552898794,0.09,0.0,0.0,0.0,0.09,0.0,0.0,0.0,0.36,2
2026/02/13 16:08:06.352501183,141,700000000,gnss_link,1,1,55.86728221518061,37.69107781739271,150.20695783104748,0.09,0.0,0.0,0.0,0.09,0.0,0.0,0.0,0.36,2
2026/02/13 16:08:06.614699953,141,800000000,gnss_link,1,1,55.86728223849772,37.6910764042773,150.2070377105847,0.09,0.0,0.0,0.0,0.09,0.0,0.0,0.0,0.36,2
2026/02/13 16:08:06.872520565,141,900000000,gnss_link,1,1,55.8672822562881,37.69107500199563,150.20700717438012,0.09,0.0,0.0,0.0,0.09,0.0,0.0,0.0,0.36,2
2026/02/13 16:08:07.125042758,142,0,gnss_link,1,1,55.86728227365827,37.69107358621175,150.207043168135,0.09,0.0,0.0,0.0,0.09,0.0,0.0,0.0,0.36,2
2026/02/13 16:08:07.385116035,142,100000000,gnss_link,1,1,55.86728228389194,37.691072185605506,150.2067810734734,0.09,0.0,0.0,0.0,0.09,0.0,0.0,0.0,0.36,2
2026/02/13 16:08:07.675040698,142,200000000,gnss_link,1,1,55.867282296118894,37.69107076326748,150.20688841771334,0.09,0.0,0.0,0.0,0.09,0.0,0.0,0.0,0.36,2
2026/02/13 16:08:07.941551552,142,300000000,gnss_link,1,1,55.867282304574985,37.6910693646616,150.20689638424665,0.09,0.0,0.0,0.0,0.09,0.0,0.0,0.0,0.36,2
2026/02/13 16:08:08.213300454,142,400000000,gnss_link,1,1,55.86728230826405,37.691067970835554,150.20701636187732,0.09,0.0,0.0,0.0,0.09,0.0,0.0,0.0,0.36,2
2026/02/13 16:08:08.496610693,142,500000000,gnss_link,1,1,55.86728230425454,37.691066576367824,150.20706651359797,0.09,0.0,0.0,0.0,0.09,0.0,0.0,0.0,0.36,2
2026/02/13 16:08:08.780766077,142,600000000,gnss_link,1,1,55.867282297014334,37.691065174543326,150.20701585989445,0.09,0.0,0.0,0.0,0.09,0.0,0.0,0.0,0.36,2
2026/02/13 16:08:09.64529825,142,700000000,gnss_link,1,1,55.8672822911514,37.69106376286572,150.20702939946204,0.09,0.0,0.0,0.0,0.09,0.0,0.0,0.0,0.36,2
2026/02/13 16:08:09.358146822,142,800000000,gnss_link,1,1,55.86728228036841,37.69106237898707,150.20694877393544,0.09,0.0,0.0,0.0,0.09,0.0,0.0,0.0,0.36,2
2026/02/13 16:08:09.671257863,142,900000000,gnss_link,1,1,55.86728226454982,37.691060954336244,150.20707120653242,0.09,0.0,0.0,0.0,0.09,0.0,0.0,0.0,0.36,2
2026/02/13 16:08:09.981081791,143,0,gnss_link,1,1,55.8672822438534,37.69105954898092,150.20700045954436,0.09,0.0,0.0,0.0,0.09,0.0,0.0,0.0,0.36,2
2026/02/13 16:08:10.391335736,143,100000000,gnss_link,1,1,55.86728221245739,37.69105813525415,150.20704404916614,0.09,0.0,0.0,0.0,0.09,0.0,0.0,0.0,0.36,2
2026/02/13 16:08:10.738494309,143,200000000,gnss_link,1,1,55.86728218141348,37.6910567148261,150.207088987343,0.09,0.0,0.0,0.0,0.09,0.0,0.0,0.0,0.36,2
2026/02/13 16:08:11.56072016,143,300000000,gnss_link,1,1,55.867282147157646,37.69105531822491,150.20704647805542,0.09,0.0,0.0,0.0,0.09,0.0,0.0,0.0,0.36,2
2026/02/13 16:08:11.358197619,143,400000000,gnss_link,1,1,55.86728212002782,37.69105392398356,150.20705796591938,0.09,0.0,0.0,0.0,0.09,0.0,0.0,0.0,0.36,2
2026/02/13 16:08:11.655154818,143,500000000,gnss_link,1,1,55.86728207780957,37.69105255196666,150.20703486166894,0.09,0.0,0.0,0.0,0.09,0.0,0.0,0.0,0.36,2
2026/02/13 16:08:11.969629104,143,600000000,gnss_link,1,1,55.86728203564586,37.691051174096295,150.20706556551158,0.09,0.0,0.0,0.0,0.09,0.0,0.0,0.0,0.36,2
2026/02/13 16:08:12.270475959,143,700000000,gnss_link,1,1,55.86728198561389,37.69104978531556,150.2070434372872,0.09,0.0,0.0,0.0,0.09,0.0,0.0,0.0,0.36,2
2026/02/13 16:08:12.579182336,143,800000000,gnss_link,1,1,55.86728192428199,37.691048372819274,150.20704629644752,0.09,0.0,0.0,0.0,0.09,0.0,0.0,0.0,0.36,2
2026/02/13 16:08:12.895083228,143,900000000,gnss_link,1,1,55.86728185843336,37.69104696824967,150.20708922948688,0.09,0.0,0.0,0.0,0.09,0.0,0.0,0.0,0.36,2
2026/02/13 16:08:13.186594337,144,0,gnss_link,1,1,55.86728177932924,37.6910456005976,150.20706165581942,0.09,0.0,0.0,0.0,0.09,0.0,0.0,0.0,0.36,2
2026/02/13 16:08:13.466605770,144,100000000,gnss_link,1,1,55.86728169844369,37.691044248110096,150.2070052465424,0.09,0.0,0.0,0.0,0.09,0.0,0.0,0.0,0.36,2
2026/02/13 16:08:13.754565061,144,200000000,gnss_link,1,1,55.867281617232194,37.69104289565264,150.2070438861847,0.09,0.0,0.0,0.0,0.09,0.0,0.0,0.0,0.36,2
2026/02/13 16:08:14.40584226,144,300000000,gnss_link,1,1,55.86728153704438,37.69104154302111,150.20697770360857,0.09,0.0,0.0,0.0,0.09,0.0,0.0,0.0,0.36,2
2026/02/13 16:08:14.314634891,144,400000000,gnss_link,1,1,55.86728145538206,37.691040190683,150.206847185269,0.09,0.0,0.0,0.0,0.09,0.0,0.0,0.0,0.36,2
2026/02/13 16:08:14.588970396,144,500000000,gnss_link,1,1,55.86728137417733,37.69103883818221,150.20692503172904,0.09,0.0,0.0,0.0,0.09,0.0,0.0,0.0,0.36,2
2026/02/13 16:08:14.858942133,144,600000000,gnss_link,1,1,55.86728129331668,37.69103748565106,150.20708873774856,0.09,0.0,0.0,0.0,0.09,0.0,0.0,0.0,0.36,2
2026/02/13 16:08:15.122437094,144,700000000,gnss_link,1,1,55.867281202266454,37.69103596261127,150.206771989353,0.09,0.0,0.0,0.0,0.09,0.0,0.0,0.0,0.36,2
2026/02/13 16:08:15.369502928,144,800000000,gnss_link,1,1,55.86728110711442,37.69103437520564,150.20707285404205,0.09,0.0,0.0,0.0,0.09,0.0,0.0,0.0,0.36,2
2026/02/13 16:08:15.616195464,144,900000000,gnss_link,1,1,55.867281011785366,37.691032787961554,150.2069992115721,0.09,0.0,0.0,0.0,0.09,0.0,0.0,0.0,0.36,2
2026/02/13 16:08:15.849581975,145,0,gnss_link,1,1,55.86728091769118,37.69103120022651,150.20692436676472,0.09,0.0,0.0,0.0,0.09,0.0,0.0,0.0,0.36,2
2026/02/13 16:08:16.73808925,145,100000000,gnss_link,1,1,55.867280821675344,37.69102961311882,150.20708198472857,0.09,0.0,0.0,0.0,0.09,0.0,0.0,0.0,0.36,2
2026/02/13 16:08:16.317375430,145,200000000,gnss_link,1,1,55.86728072650658,37.691028025840595,150.20703505259007,0.09,0.0,0.0,0.0,0.09,0.0,0.0,0.0,0.36,2
2026/02/13 16:08:16.527802005,145,300000000,gnss_link,1,1,55.86728063206047,37.691026438140774,150.20704445894808,0.09,0.0,0.0,0.0,0.09,0.0,0.0,0.0,0.36,2
2026/02/13 16:08:16.735964199,145,400000000,gnss_link,1,1,55.86728053656162,37.691024850795785,150.20702812541276,0.09,0.0,0.0,0.0,0.09,0.0,0.0,0.0,0.36,2
2026/02/13 16:08:16.947954568,145,500000000,gnss_link,1,1,55.86728044116142,37.6910232634242,150.2070000367239,0.09,0.0,0.0,0.0,0.09,0.0,0.0,0.0,0.36,2
2026/02/13 16:08:17.153967512,145,600000000,gnss_link,1,1,55.867280346162,37.69102167602804,150.2070551160723,0.09,0.0,0.0,0.0,0.09,0.0,0.0,0.0,0.36,2
2026/02/13 16:08:17.365431954,145,700000000,gnss_link,1,1,55.86728025130923,37.69102008862054,150.20701196230948,0.09,0.0,0.0,0.0,0.09,0.0,0.0,0.0,0.36,2
2026/02/13 16:08:17.552477433,145,800000000,gnss_link,1,1,55.86728015627919,37.69101850124886,150.20710785873234,0.09,0.0,0.0,0.0,0.09,0.0,0.0,0.0,0.36,2
2026/02/13 16:08:17.755548330,145,900000000,gnss_link,1,1,55.86728005993921,37.691016914048625,150.20678253937513,0.09,0.0,0.0,0.0,0.09,0.0,0.0,0.0,0.36,2
2026/02/13 16:08:17.949694324,146,0,gnss_link,1,1,55.867279966137936,37.69101532647177,150.20698944013566,0.09,0.0,0.0,0.0,0.09,0.0,0.0,0.0,0.36,2
2026/02/13 16:08:18.153340424,146,100000000,gnss_link,1,1,55.867279871016706,37.69101373920149,150.20706726145,0.09,0.0,0.0,0.0,0.09,0.0,0.0,0.0,0.36,2
2026/02/13 16:08:18.354597315,146,200000000,gnss_link,1,1,55.86727977553872,37.69101215186087,150.20683809183538,0.09,0.0,0.0,0.0,0.09,0.0,0.0,0.0,0.36,2
2026/02/13 16:08:18.554358897,146,300000000,gnss_link,1,1,55.86727968099973,37.69101056433176,150.2069871146232,0.09,0.0,0.0,0.0,0.09,0.0,0.0,0.0,0.36,2
2026/02/13 16:08:18.745322793,146,400000000,gnss_link,1,1,55.867279585917565,37.69100897706717,150.2070933561772,0.09,0.0,0.0,0.0,0.09,0.0,0.0,0.0,0.36,2
2026/02/13 16:08:18.953762379,146,500000000,gnss_link,1,1,55.86727949077528,37.69100738964553,150.20688785705715,0.09,0.0,0.0,0.0,0.09,0.0,0.0,0.0,0.36,2
2026/02/13 16:08:19.155950257,146,600000000,gnss_link,1,1,55.86727939625877,37.6910058020725,150.20703948382288,0.09,0.0,0.0,0.0,0.09,0.0,0.0,0.0,0.36,2
2026/02/13 16:08:19.356940398,146,700000000,gnss_link,1,1,55.86727930066681,37.69100421484178,150.2071006996557,0.09,0.0,0.0,0.0,0.09,0.0,0.0,0.0,0.36,2
2026/02/13 16:08:19.562439161,146,800000000,gnss_link,1,1,55.86727920596669,37.691002627381614,150.20695511065423,0.09,0.0,0.0,0.0,0.09,0.0,0.0,0.0,0.36,2
2026/02/13 16:08:19.771123337,146,900000000,gnss_link,1,1,55.867279110308374,37.691001039984904,150.20706368982792,0.09,0.0,0.0,0.0,0.09,0.0,0.0,0.0,0.36,2
2026/02/13 16:08:19.976628791,147,0,gnss_link,1,1,55.86727901544758,37.69099945257171,150.20711113419384,0.09,0.0,0.0,0.0,0.09,0.0,0.0,0.0,0.36,2
2026/02/13 16:08:20.189727640,147,100000000,gnss_link,1,1,55.86727892072314,37.69099786505613,150.20706001855433,0.09,0.0,0.0,0.0,0.09,0.0,0.0,0.0,0.36,2
2026/02/13 16:08:20.392042371,147,200000000,gnss_link,1,1,55.8672788248128,37.69099627781894,150.20695933979005,0.09,0.0,0.0,0.0,0.09,0.0,0.0,0.0,0.36,2
2026/02/13 16:08:20.602945468,147,300000000,gnss_link,1,1,55.86727873020573,37.69099469021805,150.20708067063242,0.09,0.0,0.0,0.0,0.09,0.0,0.0,0.0,0.36,2
2026/02/13 16:08:20.820923365,147,400000000,gnss_link,1,1,55.86727863557359,37.69099310274222,150.2070705089718,0.09,0.0,0.0,0.0,0.09,0.0,0.0,0.0,0.36,2
2026/02/13 16:08:21.32279014,147,500000000,gnss_link,1,1,55.86727854009623,37.69099151544186,150.2068967409432,0.09,0.0,0.0,0.0,0.09,0.0,0.0,0.0,0.36,2
