time,header_stamp_secs,header_stamp_nsecs,header_frame_id,twist_twist_linear_x,twist_twist_linear_y,twist_twist_linear_z,twist_twist_angular_x,twist_twist_angular_y,twist_twist_angular_z,twist_covariance_0,twist_covariance_1,twist_covariance_2,twist_covariance_3,twist_covariance_4,twist_covariance_5,twist_covariance_6,twist_covariance_7,twist_covariance_8,twist_covariance_9,twist_covariance_10,twist_covariance_11,twist_covariance_12,twist_covariance_13,twist_covariance_14,twist_covariance_15,twist_covariance_16,twist_covariance_17,twist_covariance_18,twist_covariance_19,twist_covariance_20,twist_covariance_21,twist_covariance_22,twist_covariance_23,twist_covariance_24,twist_covariance_25,twist_covariance_26,twist_covariance_27,twist_covariance_28,twist_covariance_29,twist_covariance_30,twist_covariance_31,twist_covariance_32,twist_covariance_33,twist_covariance_34,twist_covariance_35
2026/02/13 16:07:18.650652473,109,0,gnss_link,1.6539639306306492e-13,3.015539329319222e-12,-5.726461278196755e-14,0.0,0.0,0.0,0.0025000000000000005,0.0,0.0,0.0,0.0,0.0,0.0,0.0025000000000000005,0.0,0.0,0.0,0.0,0.0,0.0,0.010000000000000002,0.0,0.0,0.0,0.0,0.0,0.0,0.0,0.0,0.0,0.0,0.0,0.0,0.0,0.0,0.0,0.0,0.0,0.0,0.0,0.0,0.0
2026/02/13 16:07:18.758499459,109,100000000,gnss_link,1.6539639128821555e-13,3.0155388819502353e-12,-5.728303719326894e-14,0.0,0.0,0.0,0.0025000000000000005,0.0,0.0,0.0,0.0,0.0,0.0,0.0025000000000000005,0.0,0.0,0.0,0.0,0.0,0.0,0.010000000000000002,0.0,0.0,0.0,0.0,0.0,0.0,0.0,0.0,0.0,0.0,0.0,0.0,0.0,0.0,0.0,0.0,0.0,0.0,0.0,0.0,0.0
2026/02/13 16:07:18.874437505,109,200000000,gnss_link,-1.664530069856382e-13,3.0345856502566928e-12,-7.615237793125853e-14,0.0,0.0,0.0,0.0025000000000000005,0.0,0.0,0.0,0.0,0.0,0.0,0.0025000000000000005,0.0,0.0,0.0,0.0,0.0,0.0,0.010000000000000002,0.0,0.0,0.0,0.0,0.0,0.0,0.0,0.0,0.0,0.0,0.0,0.0,0.0,0.0,0.0,0.0,0.0,0.0,0.0,0.0,0.0
2026/02/13 16:07:18.980613715,109,300000000,gnss_link,1.640907007121589e-13,2.996022266468285e-12,-9.467564129748608e-14,0.0,0.0,0.0,0.0025000000000000005,0.0,0.0,0.0,0.0,0.0,0.0,0.0025000000000000005,0.0,0.0,0.0,0.0,0.0,0.0,0.010000000000000002,0.0,0.0,0.0,0.0,0.0,0.0,0.0,0.0,0.0,0.0,0.0,0.0,0.0,0.0,0.0,0.0,0.0,0.0,0.0,0.0,0.0
2026/02/13 16:07:19.88564427,109,400000000,gnss_link,1.6539679771927358e-13,3.01554608058989e-12,-5.726942854781353e-14,0.0,0.0,0.0,0.0025000000000000005,0.0,0.0,0.0,0.0,0.0,0.0,0.0025000000000000005,0.0,0.0,0.0,0.0,0.0,0.0,0.010000000000000002,0.0,0.0,0.0,0.0,0.0,0.0,0.0,0.0,0.0,0.0,0.0,0.0,0.0,0.0,0.0,0.0,0.0,0.0,0.0,0.0,0.0
2026/02/13 16:07:19.193219300,109,500000000,gnss_link,-1.664534325916268e-13,3.0345938647786218e-12,-7.614638663005868e-14,0.0,0.0,0.0,0.0025000000000000005,0.0,0.0,0.0,0.0,0.0,0.0,0.0025000000000000005,0.0,0.0,0.0,0.0,0.0,0.0,0.010000000000000002,0.0,0.0,0.0,0.0,0.0,0.0,0.0,0.0,0.0,0.0,0.0,0.0,0.0,0.0,0.0,0.0,0.0,0.0,0.0,0.0,0.0
2026/02/13 16:07:19.300842017,109,600000000,gnss_link,1.6539650749696428e-13,3.0155427667645227e-12,-5.727537760849966e-14,0.0,0.0,0.0,0.0025000000000000005,0.0,0.0,0.0,0.0,0.0,0.0,0.0025000000000000005,0.0,0.0,0.0,0.0,0.0,0.0,0.010000000000000002,0.0,0.0,0.0,0.0,0.0,0.0,0.0,0.0,0.0,0.0,0.0,0.0,0.0,0.0,0.0,0.0,0.0,0.0,0.0,0.0,0.0
2026/02/13 16:07:19.406081937,109,700000000,gnss_link,1.6539670359304286e-13,3.0155438496852813e-12,-5.728688134049506e-14,0.0,0.0,0.0,0.0025000000000000005,0.0,0.0,0.0,0.0,0.0,0.0,0.0025000000000000005,0.0,0.0,0.0,0.0,0.0,0.0,0.010000000000000002,0.0,0.0,0.0,0.0,0.0,0.0,0.0,0.0,0.0,0.0,0.0,0.0,0.0,0.0,0.0,0.0,0.0,0.0,0.0,0.0,0.0
2026/02/13 16:07:19.509994828,109,800000000,gnss_link,1.6539663430593106e-13,3.0155428525354147e-12,-5.728978093078495e-14,0.0,0.0,0.0,0.0025000000000000005,0.0,0.0,0.0,0.0,0.0,0.0,0.0025000000000000005,0.0,0.0,0.0,0.0,0.0,0.0,0.010000000000000002,0.0,0.0,0.0,0.0,0.0,0.0,0.0,0.0,0.0,0.0,0.0,0.0,0.0,0.0,0.0,0.0,0.0,0.0,0.0,0.0,0.0
2026/02/13 16:07:19.612479474,109,900000000,gnss_link,1.6409050167819636e-13,2.996019722489127e-12,-9.468006987304606e-14,0.0,0.0,0.0,0.0025000000000000005,0.0,0.0,0.0,0.0,0.0,0.0,0.0025000000000000005,0.0,0.0,0.0,0.0,0.0,0.0,0.010000000000000002,0.0,0.0,0.0,0.0,0.0,0.0,0.0,0.0,0.0,0.0,0.0,0.0,0.0,0.0,0.0,0.0,0.0,0.0,0.0,0.0,0.0
2026/02/13 16:07:19.718241349,110,0,gnss_link,1.640903252687541e-13,2.9960143317663446e-12,-9.469794585151765e-14,0.0,0.0,0.0,0.0025000000000000005,0.0,0.0,0.0,0.0,0.0,0.0,0.0025000000000000005,0.0,0.0,0.0,0.0,0.0,0.0,0.010000000000000002,0.0,0.0,0.0,0.0,0.0,0.0,0.0,0.0,0.0,0.0,0.0,0.0,0.0,0.0,0.0,0.0,0.0,0.0,0.0,0.0,0.0
2026/02/13 16:07:19.823845179,110,100000000,gnss_link,-1.635316914858588e-13,2.992991154891731e-12,-4.309518871287096e-14,0.0,0.0,0.0,0.0025000000000000005,0.0,0.0,0.0,0.0,0.0,0.0,0.0025000000000000005,0.0,0.0,0.0,0.0,0.0,0.0,0.010000000000000002,0.0,0.0,0.0,0.0,0.0,0.0,0.0,0.0,0.0,0.0,0.0,0.0,0.0,0.0,0.0,0.0,0.0,0.0,0.0,0.0,0.0
2026/02/13 16:07:19.927823400,110,200000000,gnss_link,1.653962383991097e-13,3.0155370852757318e-12,-5.727214469109019e-14,0.0,0.0,0.0,0.0025000000000000005,0.0,0.0,0.0,0.0,0.0,0.0,0.0025000000000000005,0.0,0.0,0.0,0.0,0.0,0.0,0.010000000000000002,0.0,0.0,0.0,0.0,0.0,0.0,0.0,0.0,0.0,0.0,0.0,0.0,0.0,0.0,0.0,0.0,0.0,0.0,0.0,0.0,0.0
2026/02/13 16:07:20.31129057,110,300000000,gnss_link,1.6539660122928628e-13,3.0155420370599317e-12,-5.728475821243178e-14,0.0,0.0,0.0,0.0025000000000000005,0.0,0.0,0.0,0.0,0.0,0.0,0.0025000000000000005,0.0,0.0,0.0,0.0,0.0,0.0,0.010000000000000002,0.0,0.0,0.0,0.0,0.0,0.0,0.0,0.0,0.0,0.0,0.0,0.0,0.0,0.0,0.0,0.0,0.0,0.0,0.0,0.0,0.0
2026/02/13 16:07:20.137250743,110,400000000,gnss_link,1.6539651218234973e-13,3.015541181445698e-12,-5.725809664017574e-14,0.0,0.0,0.0,0.0025000000000000005,0.0,0.0,0.0,0.0,0.0,0.0,0.0025000000000000005,0.0,0.0,0.0,0.0,0.0,0.0,0.010000000000000002,0.0,0.0,0.0,0.0,0.0,0.0,0.0,0.0,0.0,0.0,0.0,0.0,0.0,0.0,0.0,0.0,0.0,0.0,0.0,0.0,0.0
2026/02/13 16:07:20.236547407,110,500000000,gnss_link,1.6539665950269898e-13,3.0155432461860893e-12,-5.72763156602199e-14,0.0,0.0,0.0,0.0025000000000000005,0.0,0.0,0.0,0.0,0.0,0.0,0.0025000000000000005,0.0,0.0,0.0,0.0,0.0,0.0,0.010000000000000002,0.0,0.0,0.0,0.0,0.0,0.0,0.0,0.0,0.0,0.0,0.0,0.0,0.0,0.0,0.0,0.0,0.0,0.0,0.0,0.0,0.0
2026/02/13 16:07:20.347202086,110,600000000,gnss_link,1.6409016524960546e-13,2.996011837962152e-12,-9.468936729698268e-14,0.0,0.0,0.0,0.0025000000000000005,0.0,0.0,0.0,0.0,0.0,0.0,0.0025000000000000005,0.0,0.0,0.0,0.0,0.0,0.0,0.010000000000000002,0.0,0.0,0.0,0.0,0.0,0.0,0.0,0.0,0.0,0.0,0.0,0.0,0.0,0.0,0.0,0.0,0.0,0.0,0.0,0.0,0.0
2026/02/13 16:07:20.449220952,110,700000000,gnss_link,1.6539677211411057e-13,3.0155441279806503e-12,-5.727414187823286e-14,0.0,0.0,0.0,0.0025000000000000005,0.0,0.0,0.0,0.0,0.0,0.0,0.0025000000000000005,0.0,0.0,0.0,0.0,0.0,0.0,0.010000000000000002,0.0,0.0,0.0,0.0,0.0,0.0,0.0,0.0,0.0,0.0,0.0,0.0,0.0,0.0,0.0,0.0,0.0,0.0,0.0,0.0,0.0
2026/02/13 16:07:20.553919436,110,800000000,gnss_link,-1.621346069129445e-13,2.9604989733183935e-12,-4.705511205290043e-14,0.0,0.0,0.0,0.0025000000000000005,0.0,0.0,0.0,0.0,0.0,0.0,0.0025000000000000005,0.0,0.0,0.0,0.0,0.0,0.0,0.010000000000000002,0.0,0.0,0.0,0.0,0.0,0.0,0.0,0.0,0.0,0.0,0.0,0.0,0.0,0.0,0.0,0.0,0.0,0.0,0.0,0.0,0.0
2026/02/13 16:07:20.655296910,110,900000000,gnss_link,1.6539637180099143e-13,3.0155366868010352e-12,-5.72671231870441e-14,0.0,0.0,0.0,0.0025000000000000005,0.0,0.0,0.0,0.0,0.0,0.0,0.0025000000000000005,0.0,0.0,0.0,0.0,0.0,0.0,0.010000000000000002,0.0,0.0,0.0,0.0,0.0,0.0,0.0,0.0,0.0,0.0,0.0,0.0,0.0,0.0,0.0,0.0,0.0,0.0,0.0,0.0,0.0
2026/02/13 16:07:20.759928623,111,0,gnss_link,-1.6213454292228338e-13,2.9604968565456094e-12,-4.705467854550227e-14,0.0,0.0,0.0,0.0025000000000000005,0.0,0.0,0.0,0.0,0.0,0.0,0.0025000000000000005,0.0,0.0,0.0,0.0,0.0,0.0,0.010000000000000002,0.0,0.0,0.0,0.0,0.0,0.0,0.0,0.0,0.0,0.0,0.0,0.0,0.0,0.0,0.0,0.0,0.0,0.0,0.0,0.0,0.0
2026/02/13 16:07:20.866547683,111,100000000,gnss_link,1.6539636888995403e-13,3.015540115511629e-12,-5.727930242036224e-14,0.0,0.0,0.0,0.0025000000000000005,0.0,0.0,0.0,0.0,0.0,0.0,0.0025000000000000005,0.0,0.0,0.0,0.0,0.0,0.0,0.010000000000000002,0.0,0.0,0.0,0.0,0.0,0.0,0.0,0.0,0.0,0.0,0.0,0.0,0.0,0.0,0.0,0.0,0.0,0.0,0.0,0.0,0.0
2026/02/13 16:07:20.973450298,111,200000000,gnss_link,-1.6213466389627555e-13,2.9604988658027657e-12,-4.70503280324981e-14,0.0,0.0,0.0,0.0025000000000000005,0.0,0.0,0.0,0.0,0.0,0.0,0.0025000000000000005,0.0,0.0,0.0,0.0,0.0,0.0,0.010000000000000002,0.0,0.0,0.0,0.0,0.0,0.0,0.0,0.0,0.0,0.0,0.0,0.0,0.0,0.0,0.0,0.0,0.0,0.0,0.0,0.0,0.0
2026/02/13 16:07:21.76308969,111,300000000,gnss_link,1.6539610186831338e-13,3.0155349239867274e-12,-5.72752348407523e-14,0.0,0.0,0.0,0.0025000000000000005,0.0,0.0,0.0,0.0,0.0,0.0,0.0025000000000000005,0.0,0.0,0.0,0.0,0.0,0.0,0.010000000000000002,0.0,0.0,0.0,0.0,0.0,0.0,0.0,0.0,0.0,0.0,0.0,0.0,0.0,0.0,0.0,0.0,0.0,0.0,0.0,0.0,0.0
2026/02/13 16:07:21.179728139,111,400000000,gnss_link,-1.6213474862274448e-13,2.9604997472263507e-12,-4.705170427536882e-14,0.0,0.0,0.0,0.0025000000000000005,0.0,0.0,0.0,0.0,0.0,0.0,0.0025000000000000005,0.0,0.0,0.0,0.0,0.0,0.0,0.010000000000000002,0.0,0.0,0.0,0.0,0.0,0.0,0.0,0.0,0.0,0.0,0.0,0.0,0.0,0.0,0.0,0.0,0.0,0.0,0.0,0.0,0.0
2026/02/13 16:07:21.314346402,111,500000000,gnss_link,-1.6213446157732525e-13,2.960496433171659e-12,-4.7061609719886604e-14,0.0,0.0,0.0,0.0025000000000000005,0.0,0.0,0.0,0.0,0.0,0.0,0.0025000000000000005,0.0,0.0,0.0,0.0,0.0,0.0,0.010000000000000002,0.0,0.0,0.0,0.0,0.0,0.0,0.0,0.0,0.0,0.0,0.0,0.0,0.0,0.0,0.0,0.0,0.0,0.0,0.0,0.0,0.0
2026/02/13 16:07:21.423116383,111,600000000,gnss_link,-1.6353169207587661e-13,2.9929914076827184e-12,-4.3095991282687696e-14,0.0,0.0,0.0,0.0025000000000000005,0.0,0.0,0.0,0.0,0.0,0.0,0.0025000000000000005,0.0,0.0,0.0,0.0,0.0,0.0,0.010000000000000002,0.0,0.0,0.0,0.0,0.0,0.0,0.0,0.0,0.0,0.0,0.0,0.0,0.0,0.0,0.0,0.0,0.0,0.0,0.0,0.0,0.0
2026/02/13 16:07:21.530358896,111,700000000,gnss_link,-1.6213459714361086e-13,2.960497786481443e-12,-4.7070486646858454e-14,0.0,0.0,0.0,0.0025000000000000005,0.0,0.0,0.0,0.0,0.0,0.0,0.0025000000000000005,0.0,0.0,0.0,0.0,0.0,0.0,0.010000000000000002,0.0,0.0,0.0,0.0,0.0,0.0,0.0,0.0,0.0,0.0,0.0,0.0,0.0,0.0,0.0,0.0,0.0,0.0,0.0,0.0,0.0
2026/02/13 16:07:21.638462461,111,800000000,gnss_link,1.640905146516078e-13,2.996016504617023e-12,-9.468128912343902e-14,0.0,0.0,0.0,0.0025000000000000005,0.0,0.0,0.0,0.0,0.0,0.0,0.0025000000000000005,0.0,0.0,0.0,0.0,0.0,0.0,0.010000000000000002,0.0,0.0,0.0,0.0,0.0,0.0,0.0,0.0,0.0,0.0,0.0,0.0,0.0,0.0,0.0,0.0,0.0,0.0,0.0,0.0,0.0
2026/02/13 16:07:21.749677422,111,900000000,gnss_link,1.6539669365350658e-13,3.01554426578563e-12,-5.727248287543592e-14,0.0,0.0,0.0,0.0025000000000000005,0.0,0.0,0.0,0.0,0.0,0.0,0.0025000000000000005,0.0,0.0,0.0,0.0,0.0,0.0,0.010000000000000002,0.0,0.0,0.0,0.0,0.0,0.0,0.0,0.0,0.0,0.0,0.0,0.0,0.0,0.0,0.0,0.0,0.0,0.0,0.0,0.0,0.0
2026/02/13 16:07:21.857393247,112,0,gnss_link,1.6539644650717027e-13,3.0155396625265902e-12,-5.726702873135265e-14,0.0,0.0,0.0,0.0025000000000000005,0.0,0.0,0.0,0.0,0.0,0.0,0.0025000000000000005,0.0,0.0,0.0,0.0,0.0,0.0,0.010000000000000002,0.0,0.0,0.0,0.0,0.0,0.0,0.0,0.0,0.0,0.0,0.0,0.0,0.0,0.0,0.0,0.0,0.0,0.0,0.0,0.0,0.0
2026/02/13 16:07:21.966682378,112,100000000,gnss_link,1.6539658600834214e-13,3.0155434208951637e-12,-5.727307528350261e-14,0.0,0.0,0.0,0.0025000000000000005,0.0,0.0,0.0,0.0,0.0,0.0,0.0025000000000000005,0.0,0.0,0.0,0.0,0.0,0.0,0.010000000000000002,0.0,0.0,0.0,0.0,0.0,0.0,0.0,0.0,0.0,0.0,0.0,0.0,0.0,0.0,0.0,0.0,0.0,0.0,0.0,0.0,0.0
2026/02/13 16:07:22.73883763,112,200000000,gnss_link,1.6409031257203902e-13,2.996014781227219e-12,-9.470204266121526e-14,0.0,0.0,0.0,0.0025000000000000005,0.0,0.0,0.0,0.0,0.0,0.0,0.0025000000000000005,0.0,0.0,0.0,0.0,0.0,0.0,0.010000000000000002,0.0,0.0,0.0,0.0,0.0,0.0,0.0,0.0,0.0,0.0,0.0,0.0,0.0,0.0,0.0,0.0,0.0,0.0,0.0,0.0,0.0
2026/02/13 16:07:22.177778823,112,300000000,gnss_link,1.653967350610545e-13,3.015544071332365e-12,-5.727898826194385e-14,0.0,0.0,0.0,0.0025000000000000005,0.0,0.0,0.0,0.0,0.0,0.0,0.0025000000000000005,0.0,0.0,0.0,0.0,0.0,0.0,0.010000000000000002,0.0,0.0,0.0,0.0,0.0,0.0,0.0,0.0,0.0,0.0,0.0,0.0,0.0,0.0,0.0,0.0,0.0,0.0,0.0,0.0,0.0
2026/02/13 16:07:22.285837490,112,400000000,gnss_link,-1.6213461972127874e-13,2.9604981413420062e-12,-4.7067520703396106e-14,0.0,0.0,0.0,0.0025000000000000005,0.0,0.0,0.0,0.0,0.0,0.0,0.0025000000000000005,0.0,0.0,0.0,0.0,0.0,0.0,0.010000000000000002,0.0,0.0,0.0,0.0,0.0,0.0,0.0,0.0,0.0,0.0,0.0,0.0,0.0,0.0,0.0,0.0,0.0,0.0,0.0,0.0,0.0
2026/02/13 16:07:22.398962510,112,500000000,gnss_link,1.6539674720511183e-13,3.015543606847263e-12,-5.727272573672282e-14,0.0,0.0,0.0,0.0025000000000000005,0.0,0.0,0.0,0.0,0.0,0.0,0.0025000000000000005,0.0,0.0,0.0,0.0,0.0,0.0,0.010000000000000002,0.0,0.0,0.0,0.0,0.0,0.0,0.0,0.0,0.0,0.0,0.0,0.0,0.0,0.0,0.0,0.0,0.0,0.0,0.0,0.0,0.0
2026/02/13 16:07:22.504392177,112,600000000,gnss_link,1.6409041391357369e-13,2.99601703867147e-12,-9.470049311947173e-14,0.0,0.0,0.0,0.0025000000000000005,0.0,0.0,0.0,0.0,0.0,0.0,0.0025000000000000005,0.0,0.0,0.0,0.0,0.0,0.0,0.010000000000000002,0.0,0.0,0.0,0.0,0.0,0.0,0.0,0.0,0.0,0.0,0.0,0.0,0.0,0.0,0.0,0.0,0.0,0.0,0.0,0.0,0.0
2026/02/13 16:07:22.614011537,112,700000000,gnss_link,1.6539628689177656e-13,3.015538792015713e-12,-5.725878150900226e-14,0.0,0.0,0.0,0.0025000000000000005,0.0,0.0,0.0,0.0,0.0,0.0,0.0025000000000000005,0.0,0.0,0.0,0.0,0.0,0.0,0.010000000000000002,0.0,0.0,0.0,0.0,0.0,0.0,0.0,0.0,0.0,0.0,0.0,0.0,0.0,0.0,0.0,0.0,0.0,0.0,0.0,0.0,0.0
2026/02/13 16:07:22.720338807,112,800000000,gnss_link,1.6539670081650357e-13,3.015544582447617e-12,-5.728207051861594e-14,0.0,0.0,0.0,0.0025000000000000005,0.0,0.0,0.0,0.0,0.0,0.0,0.0025000000000000005,0.0,0.0,0.0,0.0,0.0,0.0,0.010000000000000002,0.0,0.0,0.0,0.0,0.0,0.0,0.0,0.0,0.0,0.0,0.0,0.0,0.0,0.0,0.0,0.0,0.0,0.0,0.0,0.0,0.0
2026/02/13 16:07:22.836200518,112,900000000,gnss_link,-1.621347840462976e-13,2.9604998336512773e-12,-4.705227213709821e-14,0.0,0.0,0.0,0.0025000000000000005,0.0,0.0,0.0,0.0,0.0,0.0,0.0025000000000000005,0.0,0.0,0.0,0.0,0.0,0.0,0.010000000000000002,0.0,0.0,0.0,0.0,0.0,0.0,0.0,0.0,0.0,0.0,0.0,0.0,0.0,0.0,0.0,0.0,0.0,0.0,0.0,0.0,0.0
2026/02/13 16:07:22.940256942,113,0,gnss_link,1.653968553128492e-13,3.0155457023490725e-12,-5.728229256322199e-14,0.0,0.0,0.0,0.0025000000000000005,0.0,0.0,0.0,0.0,0.0,0.0,0.0025000000000000005,0.0,0.0,0.0,0.0,0.0,0.0,0.010000000000000002,0.0,0.0,0.0,0.0,0.0,0.0,0.0,0.0,0.0,0.0,0.0,0.0,0.0,0.0,0.0,0.0,0.0,0.0,0.0,0.0,0.0
2026/02/13 16:07:23.42670412,113,100000000,gnss_link,-1.6645321279952513e-13,3.0345901924763824e-12,-7.613423333085605e-14,0.0,0.0,0.0,0.0025000000000000005,0.0,0.0,0.0,0.0,0.0,0.0,0.0025000000000000005,0.0,0.0,0.0,0.0,0.0,0.0,0.010000000000000002,0.0,0.0,0.0,0.0,0.0,0.0,0.0,0.0,0.0,0.0,0.0,0.0,0.0,0.0,0.0,0.0,0.0,0.0,0.0,0.0,0.0
2026/02/13 16:07:23.149496050,113,200000000,gnss_link,-1.6213459153977445e-13,2.960496307155617e-12,-4.706110005812954e-14,0.0,0.0,0.0,0.0025000000000000005,0.0,0.0,0.0,0.0,0.0,0.0,0.0025000000000000005,0.0,0.0,0.0,0.0,0.0,0.0,0.010000000000000002,0.0,0.0,0.0,0.0,0.0,0.0,0.0,0.0,0.0,0.0,0.0,0.0,0.0,0.0,0.0,0.0,0.0,0.0,0.0,0.0,0.0
2026/02/13 16:07:23.262547523,113,300000000,gnss_link,-1.621346128663221e-13,2.960498523632119e-12,-4.704798233941384e-14,0.0,0.0,0.0,0.0025000000000000005,0.0,0.0,0.0,0.0,0.0,0.0,0.0025000000000000005,0.0,0.0,0.0,0.0,0.0,0.0,0.010000000000000002,0.0,0.0,0.0,0.0,0.0,0.0,0.0,0.0,0.0,0.0,0.0,0.0,0.0,0.0,0.0,0.0,0.0,0.0,0.0,0.0,0.0
2026/02/13 16:07:23.375699287,113,400000000,gnss_link,-1.621345222939284e-13,2.9604962312282984e-12,-4.705902506864345e-14,0.0,0.0,0.0,0.0025000000000000005,0.0,0.0,0.0,0.0,0.0,0.0,0.0025000000000000005,0.0,0.0,0.0,0.0,0.0,0.0,0.010000000000000002,0.0,0.0,0.0,0.0,0.0,0.0,0.0,0.0,0.0,0.0,0.0,0.0,0.0,0.0,0.0,0.0,0.0,0.0,0.0,0.0,0.0
2026/02/13 16:07:23.483367682,113,500000000,gnss_link,1.6539658546748133e-13,3.0155417869774175e-12,-5.726474887102571e-14,0.0,0.0,0.0,0.0025000000000000005,0.0,0.0,0.0,0.0,0.0,0.0,0.0025000000000000005,0.0,0.0,0.0,0.0,0.0,0.0,0.010000000000000002,0.0,0.0,0.0,0.0,0.0,0.0,0.0,0.0,0.0,0.0,0.0,0.0,0.0,0.0,0.0,0.0,0.0,0.0,0.0,0.0,0.0
2026/02/13 16:07:23.679713496,113,600000000,gnss_link,-1.6645309614086684e-13,3.0345879260241945e-12,-7.614665733365282e-14,0.0,0.0,0.0,0.0025000000000000005,0.0,0.0,0.0,0.0,0.0,0.0,0.0025000000000000005,0.0,0.0,0.0,0.0,0.0,0.0,0.010000000000000002,0.0,0.0,0.0,0.0,0.0,0.0,0.0,0.0,0.0,0.0,0.0,0.0,0.0,0.0,0.0,0.0,0.0,0.0,0.0,0.0,0.0
2026/02/13 16:07:23.796029898,113,700000000,gnss_link,1.6409051478984566e-13,2.9960165566288594e-12,-9.468685194794582e-14,0.0,0.0,0.0,0.0025000000000000005,0.0,0.0,0.0,0.0,0.0,0.0,0.0025000000000000005,0.0,0.0,0.0,0.0,0.0,0.0,0.010000000000000002,0.0,0.0,0.0,0.0,0.0,0.0,0.0,0.0,0.0,0.0,0.0,0.0,0.0,0.0,0.0,0.0,0.0,0.0,0.0,0.0,0.0
2026/02/13 16:07:23.903290554,113,800000000,gnss_link,-1.6213438276661242e-13,2.960493197741907e-12,-4.706280824033435e-14,0.0,0.0,0.0,0.0025000000000000005,0.0,0.0,0.0,0.0,0.0,0.0,0.0025000000000000005,0.0,0.0,0.0,0.0,0.0,0.0,0.010000000000000002,0.0,0.0,0.0,0.0,0.0,0.0,0.0,0.0,0.0,0.0,0.0,0.0,0.0,0.0,0.0,0.0,0.0,0.0,0.0,0.0,0.0
2026/02/13 16:07:24.36548158,113,900000000,gnss_link,-1.6353191940276294e-13,2.99299434062659e-12,-4.309694243157156e-14,0.0,0.0,0.0,0.0025000000000000005,0.0,0.0,0.0,0.0,0.0,0.0,0.0025000000000000005,0.0,0.0,0.0,0.0,0.0,0.0,0.010000000000000002,0.0,0.0,0.0,0.0,0.0,0.0,0.0,0.0,0.0,0.0,0.0,0.0,0.0,0.0,0.0,0.0,0.0,0.0,0.0,0.0,0.0
2026/02/13 16:07:24.139830664,114,0,gnss_link,1.6479517738986141e-13,3.003935203880159e-12,-1.0978329852876732e-13,0.0,0.0,0.0,0.0025000000000000005,0.0,0.0,0.0,0.0,0.0,0.0,0.0025000000000000005,0.0,0.0,0.0,0.0,0.0,0.0,0.010000000000000002,0.0,0.0,0.0,0.0,0.0,0.0,0.0,0.0,0.0,0.0,0.0,0.0,0.0,0.0,0.0,0.0,0.0,0.0,0.0,0.0,0.0
2026/02/13 16:07:24.244186224,114,100000000,gnss_link,-1.6213454242615545e-13,2.96049877236721e-12,-4.704589355887627e-14,0.0,0.0,0.0,0.0025000000000000005,0.0,0.0,0.0,0.0,0.0,0.0,0.0025000000000000005,0.0,0.0,0.0,0.0,0.0,0.0,0.010000000000000002,0.0,0.0,0.0,0.0,0.0,0.0,0.0,0.0,0.0,0.0,0.0,0.0,0.0,0.0,0.0,0.0,0.0,0.0,0.0,0.0,0.0
2026/02/13 16:07:24.350915074,114,200000000,gnss_link,-1.6213455271680862e-13,2.9604976256311538e-12,-4.705950489315768e-14,0.0,0.0,0.0,0.0025000000000000005,0.0,0.0,0.0,0.0,0.0,0.0,0.0025000000000000005,0.0,0.0,0.0,0.0,0.0,0.0,0.010000000000000002,0.0,0.0,0.0,0.0,0.0,0.0,0.0,0.0,0.0,0.0,0.0,0.0,0.0,0.0,0.0,0.0,0.0,0.0,0.0,0.0,0.0
2026/02/13 16:07:24.454575219,114,300000000,gnss_link,-1.621346579046743e-13,2.960499743696651e-12,-4.7069356214306634e-14,0.0,0.0,0.0,0.0025000000000000005,0.0,0.0,0.0,0.0,0.0,0.0,0.0025000000000000005,0.0,0.0,0.0,0.0,0.0,0.0,0.010000000000000002,0.0,0.0,0.0,0.0,0.0,0.0,0.0,0.0,0.0,0.0,0.0,0.0,0.0,0.0,0.0,0.0,0.0,0.0,0.0,0.0,0.0
2026/02/13 16:07:24.556909672,114,400000000,gnss_link,-1.6213468392971686e-13,2.9604987545057508e-12,-4.704606737816898e-14,0.0,0.0,0.0,0.0025000000000000005,0.0,0.0,0.0,0.0,0.0,0.0,0.0025000000000000005,0.0,0.0,0.0,0.0,0.0,0.0,0.010000000000000002,0.0,0.0,0.0,0.0,0.0,0.0,0.0,0.0,0.0,0.0,0.0,0.0,0.0,0.0,0.0,0.0,0.0,0.0,0.0,0.0,0.0
2026/02/13 16:07:24.663279276,114,500000000,gnss_link,1.6539647521089455e-13,3.015541784372858e-12,-5.727777534328725e-14,0.0,0.0,0.0,0.0025000000000000005,0.0,0.0,0.0,0.0,0.0,0.0,0.0025000000000000005,0.0,0.0,0.0,0.0,0.0,0.0,0.010000000000000002,0.0,0.0,0.0,0.0,0.0,0.0,0.0,0.0,0.0,0.0,0.0,0.0,0.0,0.0,0.0,0.0,0.0,0.0,0.0,0.0,0.0
2026/02/13 16:07:24.768264972,114,600000000,gnss_link,1.6539630777710713e-13,3.01553914255773e-12,-5.726927424415587e-14,0.0,0.0,0.0,0.0025000000000000005,0.0,0.0,0.0,0.0,0.0,0.0,0.0025000000000000005,0.0,0.0,0.0,0.0,0.0,0.0,0.010000000000000002,0.0,0.0,0.0,0.0,0.0,0.0,0.0,0.0,0.0,0.0,0.0,0.0,0.0,0.0,0.0,0.0,0.0,0.0,0.0,0.0,0.0
2026/02/13 16:07:24.899374096,114,700000000,gnss_link,1.6539658176098934e-13,3.0155416732555864e-12,-5.72771326282401e-14,0.0,0.0,0.0,0.0025000000000000005,0.0,0.0,0.0,0.0,0.0,0.0,0.0025000000000000005,0.0,0.0,0.0,0.0,0.0,0.0,0.010000000000000002,0.0,0.0,0.0,0.0,0.0,0.0,0.0,0.0,0.0,0.0,0.0,0.0,0.0,0.0,0.0,0.0,0.0,0.0,0.0,0.0,0.0
2026/02/13 16:07:25.13352294,114,800000000,gnss_link,-1.621347707744655e-13,2.9605020608064286e-12,-4.704594325870656e-14,0.0,0.0,0.0,0.0025000000000000005,0.0,0.0,0.0,0.0,0.0,0.0,0.0025000000000000005,0.0,0.0,0.0,0.0,0.0,0.0,0.010000000000000002,0.0,0.0,0.0,0.0,0.0,0.0,0.0,0.0,0.0,0.0,0.0,0.0,0.0,0.0,0.0,0.0,0.0,0.0,0.0,0.0,0.0
2026/02/13 16:07:25.121699906,114,900000000,gnss_link,-1.6213473276550357e-13,2.960501830444407e-12,-4.7062601634773616e-14,0.0,0.0,0.0,0.0025000000000000005,0.0,0.0,0.0,0.0,0.0,0.0,0.0025000000000000005,0.0,0.0,0.0,0.0,0.0,0.0,0.010000000000000002,0.0,0.0,0.0,0.0,0.0,0.0,0.0,0.0,0.0,0.0,0.0,0.0,0.0,0.0,0.0,0.0,0.0,0.0,0.0,0.0,0.0
2026/02/13 16:07:25.231047793,115,0,gnss_link,1.6539676943677285e-13,3.015546912079947e-12,-5.727176071005464e-14,0.0,0.0,0.0,0.0025000000000000005,0.0,0.0,0.0,0.0,0.0,0.0,0.0025000000000000005,0.0,0.0,0.0,0.0,0.0,0.0,0.010000000000000002,0.0,0.0,0.0,0.0,0.0,0.0,0.0,0.0,0.0,0.0,0.0,0.0,0.0,0.0,0.0,0.0,0.0,0.0,0.0,0.0,0.0
2026/02/13 16:07:25.338709735,115,100000000,gnss_link,1.6539663723858822e-13,3.0155436602612995e-12,-5.727027717453579e-14,0.0,0.0,0.0,0.0025000000000000005,0.0,0.0,0.0,0.0,0.0,0.0,0.0025000000000000005,0.0,0.0,0.0,0.0,0.0,0.0,0.010000000000000002,0.0,0.0,0.0,0.0,0.0,0.0,0.0,0.0,0.0,0.0,0.0,0.0,0.0,0.0,0.0,0.0,0.0,0.0,0.0,0.0,0.0
2026/02/13 16:07:25.444598339,115,200000000,gnss_link,-1.6645323279832694e-13,3.034591023882145e-12,-7.614170018785027e-14,0.0,0.0,0.0,0.0025000000000000005,0.0,0.0,0.0,0.0,0.0,0.0,0.0025000000000000005,0.0,0.0,0.0,0.0,0.0,0.0,0.010000000000000002,0.0,0.0,0.0,0.0,0.0,0.0,0.0,0.0,0.0,0.0,0.0,0.0,0.0,0.0,0.0,0.0,0.0,0.0,0.0,0.0,0.0
2026/02/13 16:07:25.657032327,115,300000000,gnss_link,-1.6645327346154936e-13,3.034589944408677e-12,-7.61371295384349e-14,0.0,0.0,0.0,0.0025000000000000005,0.0,0.0,0.0,0.0,0.0,0.0,0.0025000000000000005,0.0,0.0,0.0,0.0,0.0,0.0,0.010000000000000002,0.0,0.0,0.0,0.0,0.0,0.0,0.0,0.0,0.0,0.0,0.0,0.0,0.0,0.0,0.0,0.0,0.0,0.0,0.0,0.0,0.0
2026/02/13 16:07:25.780105057,115,400000000,gnss_link,-1.6213452965142296e-13,2.9604967978354456e-12,-4.706520276588679e-14,0.0,0.0,0.0,0.0025000000000000005,0.0,0.0,0.0,0.0,0.0,0.0,0.0025000000000000005,0.0,0.0,0.0,0.0,0.0,0.0,0.010000000000000002,0.0,0.0,0.0,0.0,0.0,0.0,0.0,0.0,0.0,0.0,0.0,0.0,0.0,0.0,0.0,0.0,0.0,0.0,0.0,0.0,0.0
2026/02/13 16:07:25.895897960,115,500000000,gnss_link,-1.6213452299498402e-13,2.960495668427976e-12,-4.705853535620611e-14,0.0,0.0,0.0,0.0025000000000000005,0.0,0.0,0.0,0.0,0.0,0.0,0.0025000000000000005,0.0,0.0,0.0,0.0,0.0,0.0,0.010000000000000002,0.0,0.0,0.0,0.0,0.0,0.0,0.0,0.0,0.0,0.0,0.0,0.0,0.0,0.0,0.0,0.0,0.0,0.0,0.0,0.0,0.0
2026/02/13 16:07:26.4261691,115,600000000,gnss_link,-1.6213471589385403e-13,2.9605001525993026e-12,-4.706989397858437e-14,0.0,0.0,0.0,0.0025000000000000005,0.0,0.0,0.0,0.0,0.0,0.0,0.0025000000000000005,0.0,0.0,0.0,0.0,0.0,0.0,0.010000000000000002,0.0,0.0,0.0,0.0,0.0,0.0,0.0,0.0,0.0,0.0,0.0,0.0,0.0,0.0,0.0,0.0,0.0,0.0,0.0,0.0,0.0
2026/02/13 16:07:26.108477788,115,700000000,gnss_link,-1.6645348295224678e-13,3.0345931200439495e-12,-7.61470910145254e-14,0.0,0.0,0.0,0.0025000000000000005,0.0,0.0,0.0,0.0,0.0,0.0,0.0025000000000000005,0.0,0.0,0.0,0.0,0.0,0.0,0.010000000000000002,0.0,0.0,0.0,0.0,0.0,0.0,0.0,0.0,0.0,0.0,0.0,0.0,0.0,0.0,0.0,0.0,0.0,0.0,0.0,0.0,0.0
2026/02/13 16:07:26.224285069,115,800000000,gnss_link,1.6539670575497534e-13,3.015545835556225e-12,-5.725776556820336e-14,0.0,0.0,0.0,0.0025000000000000005,0.0,0.0,0.0,0.0,0.0,0.0,0.0025000000000000005,0.0,0.0,0.0,0.0,0.0,0.0,0.010000000000000002,0.0,0.0,0.0,0.0,0.0,0.0,0.0,0.0,0.0,0.0,0.0,0.0,0.0,0.0,0.0,0.0,0.0,0.0,0.0,0.0,0.0
2026/02/13 16:07:26.331938823,115,900000000,gnss_link,1.6539703437960865e-13,3.0155493660381435e-12,-5.72836450403821e-14,0.0,0.0,0.0,0.0025000000000000005,0.0,0.0,0.0,0.0,0.0,0.0,0.0025000000000000005,0.0,0.0,0.0,0.0,0.0,0.0,0.010000000000000002,0.0,0.0,0.0,0.0,0.0,0.0,0.0,0.0,0.0,0.0,0.0,0.0,0.0,0.0,0.0,0.0,0.0,0.0,0.0,0.0,0.0
2026/02/13 16:07:26.437002275,116,0,gnss_link,1.6539687437856405e-13,3.015546728712047e-12,-5.727485120666386e-14,0.0,0.0,0.0,0.0025000000000000005,0.0,0.0,0.0,0.0,0.0,0.0,0.0025000000000000005,0.0,0.0,0.0,0.0,0.0,0.0,0.010000000000000002,0.0,0.0,0.0,0.0,0.0,0.0,0.0,0.0,0.0,0.0,0.0,0.0,0.0,0.0,0.0,0.0,0.0,0.0,0.0,0.0,0.0
2026/02/13 16:07:26.543168241,116,100000000,gnss_link,-0.004051759128521741,0.07385792798920188,-0.0010686294695268538,0.0,0.0,0.0,0.0025000000000000005,0.0,0.0,0.0,0.0,0.0,0.0,0.0025000000000000005,0.0,0.0,0.0,0.0,0.0,0.0,0.010000000000000002,0.0,0.0,0.0,0.0,0.0,0.0,0.0,0.0,0.0,0.0,0.0,0.0,0.0,0.0,0.0,0.0,0.0,0.0,0.0,0.0,0.0
2026/02/13 16:07:26.648094042,116,200000000,gnss_link,-0.020638097174175123,0.37620377886101614,0.012592941783352183,0.0,0.0,0.0,0.0025000000000000005,0.0,0.0,0.0,0.0,0.0,0.0,0.0025000000000000005,0.0,0.0,0.0,0.0,0.0,0.0,0.010000000000000002,0.0,0.0,0.0,0.0,0.0,0.0,0.0,0.0,0.0,0.0,0.0,0.0,0.0,0.0,0.0,0.0,0.0,0.0,0.0,0.0,0.0
2026/02/13 16:07:26.757183961,116,300000000,gnss_link,-0.026505564744135717,0.48315954379870985,0.004515571589694291,0.0,0.0,0.0,0.0025000000000000005,0.0,0.0,0.0,0.0,0.0,0.0,0.0025000000000000005,0.0,0.0,0.0,0.0,0.0,0.0,0.010000000000000002,0.0,0.0,0.0,0.0,0.0,0.0,0.0,0.0,0.0,0.0,0.0,0.0,0.0,0.0,0.0,0.0,0.0,0.0,0.0,0.0,0.0
2026/02/13 16:07:26.855396615,116,400000000,gnss_link,-0.029191632494242684,0.5321228290280648,-0.0009131580698175782,0.0,0.0,0.0,0.0025000000000000005,0.0,0.0,0.0,0.0,0.0,0.0,0.0025000000000000005,0.0,0.0,0.0,0.0,0.0,0.0,0.010000000000000002,0.0,0.0,0.0,0.0,0.0,0.0,0.0,0.0,0.0,0.0,0.0,0.0,0.0,0.0,0.0,0.0,0.0,0.0,0.0,0.0,0.0
2026/02/13 16:07:26.967607552,116,500000000,gnss_link,-0.029632165297356166,0.5401531289937975,0.0014864647010374248,0.0,0.0,0.0,0.0025000000000000005,0.0,0.0,0.0,0.0,0.0,0.0,0.0025000000000000005,0.0,0.0,0.0,0.0,0.0,0.0,0.010000000000000002,0.0,0.0,0.0,0.0,0.0,0.0,0.0,0.0,0.0,0.0,0.0,0.0,0.0,0.0,0.0,0.0,0.0,0.0,0.0,0.0,0.0
2026/02/13 16:07:27.70321489,116,600000000,gnss_link,-0.03187464908235791,0.5810304870527014,-0.002896677109286608,0.0,0.0,0.0,0.0025000000000000005,0.0,0.0,0.0,0.0,0.0,0.0,0.0025000000000000005,0.0,0.0,0.0,0.0,0.0,0.0,0.010000000000000002,0.0,0.0,0.0,0.0,0.0,0.0,0.0,0.0,0.0,0.0,0.0,0.0,0.0,0.0,0.0,0.0,0.0,0.0,0.0,0.0,0.0
2026/02/13 16:07:27.175235847,116,700000000,gnss_link,-0.03230956739690911,0.588958442670912,-0.03284259800144322,0.0,0.0,0.0,0.0025000000000000005,0.0,0.0,0.0,0.0,0.0,0.0,0.0025000000000000005,0.0,0.0,0.0,0.0,0.0,0.0,0.010000000000000002,0.0,0.0,0.0,0.0,0.0,0.0,0.0,0.0,0.0,0.0,0.0,0.0,0.0,0.0,0.0,0.0,0.0,0.0,0.0,0.0,0.0
2026/02/13 16:07:27.274878238,116,800000000,gnss_link,-0.03227908255153825,0.5884022199268557,-0.0250669059586809,0.0,0.0,0.0,0.0025000000000000005,0.0,0.0,0.0,0.0,0.0,0.0,0.0025000000000000005,0.0,0.0,0.0,0.0,0.0,0.0,0.010000000000000002,0.0,0.0,0.0,0.0,0.0,0.0,0.0,0.0,0.0,0.0,0.0,0.0,0.0,0.0,0.0,0.0,0.0,0.0,0.0,0.0,0.0
2026/02/13 16:07:27.378418926,116,900000000,gnss_link,-0.03230058909586314,0.5887947801513845,0.018868613146348693,0.0,0.0,0.0,0.0025000000000000005,0.0,0.0,0.0,0.0,0.0,0.0,0.0025000000000000005,0.0,0.0,0.0,0.0,0.0,0.0,0.010000000000000002,0.0,0.0,0.0,0.0,0.0,0.0,0.0,0.0,0.0,0.0,0.0,0.0,0.0,0.0,0.0,0.0,0.0,0.0,0.0,0.0,0.0
2026/02/13 16:07:27.480692219,117,0,gnss_link,-0.03229885489341257,0.5887631681051675,0.019310905621998515,0.0,0.0,0.0,0.0025000000000000005,0.0,0.0,0.0,0.0,0.0,0.0,0.0025000000000000005,0.0,0.0,0.0,0.0,0.0,0.0,0.010000000000000002,0.0,0.0,0.0,0.0,0.0,0.0,0.0,0.0,0.0,0.0,0.0,0.0,0.0,0.0,0.0,0.0,0.0,0.0,0.0,0.0,0.0
2026/02/13 16:07:27.585259172,117,100000000,gnss_link,-0.03231372163004944,0.5890341679828814,0.008475906261895037,0.0,0.0,0.0,0.0025000000000000005,0.0,0.0,0.0,0.0,0.0,0.0,0.0025000000000000005,0.0,0.0,0.0,0.0,0.0,0.0,0.010000000000000002,0.0,0.0,0.0,0.0,0.0,0.0,0.0,0.0,0.0,0.0,0.0,0.0,0.0,0.0,0.0,0.0,0.0,0.0,0.0,0.0,0.0
2026/02/13 16:07:27.695512522,117,200000000,gnss_link,-0.03231255130262626,0.5890128345245607,-0.004139798723727473,0.0,0.0,0.0,0.0025000000000000005,0.0,0.0,0.0,0.0,0.0,0.0,0.0025000000000000005,0.0,0.0,0.0,0.0,0.0,0.0,0.010000000000000002,0.0,0.0,0.0,0.0,0.0,0.0,0.0,0.0,0.0,0.0,0.0,0.0,0.0,0.0,0.0,0.0,0.0,0.0,0.0,0.0,0.0
2026/02/13 16:07:27.799791535,117,300000000,gnss_link,-0.032311829765599216,0.5889996819438837,0.0018641122268849332,0.0,0.0,0.0,0.0025000000000000005,0.0,0.0,0.0,0.0,0.0,0.0,0.0025000000000000005,0.0,0.0,0.0,0.0,0.0,0.0,0.010000000000000002,0.0,0.0,0.0,0.0,0.0,0.0,0.0,0.0,0.0,0.0,0.0,0.0,0.0,0.0,0.0,0.0,0.0,0.0,0.0,0.0,0.0
2026/02/13 16:07:27.906988252,117,400000000,gnss_link,-0.03227417498112579,0.5883132860016015,-0.022346232784149007,0.0,0.0,0.0,0.0025000000000000005,0.0,0.0,0.0,0.0,0.0,0.0,0.0025000000000000005,0.0,0.0,0.0,0.0,0.0,0.0,0.010000000000000002,0.0,0.0,0.0,0.0,0.0,0.0,0.0,0.0,0.0,0.0,0.0,0.0,0.0,0.0,0.0,0.0,0.0,0.0,0.0,0.0,0.0
2026/02/13 16:07:28.5889054,117,500000000,gnss_link,-0.03231574146406929,0.5890709866164454,-0.02568735751541388,0.0,0.0,0.0,0.0025000000000000005,0.0,0.0,0.0,0.0,0.0,0.0,0.0025000000000000005,0.0,0.0,0.0,0.0,0.0,0.0,0.010000000000000002,0.0,0.0,0.0,0.0,0.0,0.0,0.0,0.0,0.0,0.0,0.0,0.0,0.0,0.0,0.0,0.0,0.0,0.0,0.0,0.0,0.0
2026/02/13 16:07:28.111857477,117,600000000,gnss_link,-0.033233747144835624,0.605804952404703,0.017671816998482547,0.0,0.0,0.0,0.0025000000000000005,0.0,0.0,0.0,0.0,0.0,0.0,0.0025000000000000005,0.0,0.0,0.0,0.0,0.0,0.0,0.010000000000000002,0.0,0.0,0.0,0.0,0.0,0.0,0.0,0.0,0.0,0.0,0.0,0.0,0.0,0.0,0.0,0.0,0.0,0.0,0.0,0.0,0.0
2026/02/13 16:07:28.215781709,117,700000000,gnss_link,-0.03456277575744459,0.6300312940913513,-0.0038703994391559127,0.0,0.0,0.0,0.0025000000000000005,0.0,0.0,0.0,0.0,0.0,0.0,0.0025000000000000005,0.0,0.0,0.0,0.0,0.0,0.0,0.010000000000000002,0.0,0.0,0.0,0.0,0.0,0.0,0.0,0.0,0.0,0.0,0.0,0.0,0.0,0.0,0.0,0.0,0.0,0.0,0.0,0.0,0.0
2026/02/13 16:07:28.321324559,117,800000000,gnss_link,-0.03455161845966185,0.6298279120920469,0.012319744645174869,0.0,0.0,0.0,0.0025000000000000005,0.0,0.0,0.0,0.0,0.0,0.0,0.0025000000000000005,0.0,0.0,0.0,0.0,0.0,0.0,0.010000000000000002,0.0,0.0,0.0,0.0,0.0,0.0,0.0,0.0,0.0,0.0,0.0,0.0,0.0,0.0,0.0,0.0,0.0,0.0,0.0,0.0,0.0
2026/02/13 16:07:28.426705140,117,900000000,gnss_link,-0.03497786711332392,0.6375978317697208,0.023665289536187427,0.0,0.0,0.0,0.0025000000000000005,0.0,0.0,0.0,0.0,0.0,0.0,0.0025000000000000005,0.0,0.0,0.0,0.0,0.0,0.0,0.010000000000000002,0.0,0.0,0.0,0.0,0.0,0.0,0.0,0.0,0.0,0.0,0.0,0.0,0.0,0.0,0.0,0.0,0.0,0.0,0.0,0.0,0.0
2026/02/13 16:07:28.529817354,118,0,gnss_link,-0.035929195570756425,0.6549392253796265,-0.0035781863389936844,0.0,0.0,0.0,0.0025000000000000005,0.0,0.0,0.0,0.0,0.0,0.0,0.0025000000000000005,0.0,0.0,0.0,0.0,0.0,0.0,0.010000000000000002,0.0,0.0,0.0,0.0,0.0,0.0,0.0,0.0,0.0,0.0,0.0,0.0,0.0,0.0,0.0,0.0,0.0,0.0,0.0,0.0,0.0
2026/02/13 16:07:28.637149243,118,100000000,gnss_link,-0.03680695171677821,0.6709394981973416,0.0009745121558137902,0.0,0.0,0.0,0.0025000000000000005,0.0,0.0,0.0,0.0,0.0,0.0,0.0025000000000000005,0.0,0.0,0.0,0.0,0.0,0.0,0.010000000000000002,0.0,0.0,0.0,0.0,0.0,0.0,0.0,0.0,0.0,0.0,0.0,0.0,0.0,0.0,0.0,0.0,0.0,0.0,0.0,0.0,0.0
2026/02/13 16:07:28.739239527,118,200000000,gnss_link,-0.0368093027418967,0.6709823541883728,0.0007828363036847316,0.0,0.0,0.0,0.0025000000000000005,0.0,0.0,0.0,0.0,0.0,0.0,0.0025000000000000005,0.0,0.0,0.0,0.0,0.0,0.0,0.010000000000000002,0.0,0.0,0.0,0.0,0.0,0.0,0.0,0.0,0.0,0.0,0.0,0.0,0.0,0.0,0.0,0.0,0.0,0.0,0.0,0.0,0.0
2026/02/13 16:07:28.849523107,118,300000000,gnss_link,-0.03676206285003223,0.6701212366938399,-0.05209715938335588,0.0,0.0,0.0,0.0025000000000000005,0.0,0.0,0.0,0.0,0.0,0.0,0.0025000000000000005,0.0,0.0,0.0,0.0,0.0,0.0,0.010000000000000002,0.0,0.0,0.0,0.0,0.0,0.0,0.0,0.0,0.0,0.0,0.0,0.0,0.0,0.0,0.0,0.0,0.0,0.0,0.0,0.0,0.0
2026/02/13 16:07:28.961873025,118,400000000,gnss_link,-0.03680026558681446,0.6708176192900992,0.007344416114232933,0.0,0.0,0.0,0.0025000000000000005,0.0,0.0,0.0,0.0,0.0,0.0,0.0025000000000000005,0.0,0.0,0.0,0.0,0.0,0.0,0.010000000000000002,0.0,0.0,0.0,0.0,0.0,0.0,0.0,0.0,0.0,0.0,0.0,0.0,0.0,0.0,0.0,0.0,0.0,0.0,0.0,0.0,0.0
2026/02/13 16:07:29.81563684,118,500000000,gnss_link,-0.03680624262471694,0.6709271925465972,-0.003363607507523299,0.0,0.0,0.0,0.0025000000000000005,0.0,0.0,0.0,0.0,0.0,0.0,0.0025000000000000005,0.0,0.0,0.0,0.0,0.0,0.0,0.010000000000000002,0.0,0.0,0.0,0.0,0.0,0.0,0.0,0.0,0.0,0.0,0.0,0.0,0.0,0.0,0.0,0.0,0.0,0.0,0.0,0.0,0.0
2026/02/13 16:07:29.196071342,118,600000000,gnss_link,-0.03680114302100252,0.6708336448843736,0.013284823609910247,0.0,0.0,0.0,0.0025000000000000005,0.0,0.0,0.0,0.0,0.0,0.0,0.0025000000000000005,0.0,0.0,0.0,0.0,0.0,0.0,0.010000000000000002,0.0,0.0,0.0,0.0,0.0,0.0,0.0,0.0,0.0,0.0,0.0,0.0,0.0,0.0,0.0,0.0,0.0,0.0,0.0,0.0,0.0
2026/02/13 16:07:29.316506149,118,700000000,gnss_link,-0.036773596334044964,0.6703315071924122,-0.02602746743873423,0.0,0.0,0.0,0.0025000000000000005,0.0,0.0,0.0,0.0,0.0,0.0,0.0025000000000000005,0.0,0.0,0.0,0.0,0.0,0.0,0.010000000000000002,0.0,0.0,0.0,0.0,0.0,0.0,0.0,0.0,0.0,0.0,0.0,0.0,0.0,0.0,0.0,0.0,0.0,0.0,0.0,0.0,0.0
2026/02/13 16:07:29.440839721,118,800000000,gnss_link,-0.03679305548967437,0.6706862203956188,0.01639821940008587,0.0,0.0,0.0,0.0025000000000000005,0.0,0.0,0.0,0.0,0.0,0.0,0.0025000000000000005,0.0,0.0,0.0,0.0,0.0,0.0,0.010000000000000002,0.0,0.0,0.0,0.0,0.0,0.0,0.0,0.0,0.0,0.0,0.0,0.0,0.0,0.0,0.0,0.0,0.0,0.0,0.0,0.0,0.0
2026/02/13 16:07:29.553178063,118,900000000,gnss_link,-0.036806157840044595,0.6709250580626703,-0.008625306336313083,0.0,0.0,0.0,0.0025000000000000005,0.0,0.0,0.0,0.0,0.0,0.0,0.0025000000000000005,0.0,0.0,0.0,0.0,0.0,0.0,0.010000000000000002,0.0,0.0,0.0,0.0,0.0,0.0,0.0,0.0,0.0,0.0,0.0,0.0,0.0,0.0,0.0,0.0,0.0,0.0,0.0,0.0,0.0
2026/02/13 16:07:29.674920708,119,0,gnss_link,-0.03679231084809648,0.6706726463735164,0.01934925561220256,0.0,0.0,0.0,0.0025000000000000005,0.0,0.0,0.0,0.0,0.0,0.0,0.0025000000000000005,0.0,0.0,0.0,0.0,0.0,0.0,0.010000000000000002,0.0,0.0,0.0,0.0,0.0,0.0,0.0,0.0,0.0,0.0,0.0,0.0,0.0,0.0,0.0,0.0,0.0,0.0,0.0,0.0,0.0
2026/02/13 16:07:29.804537673,119,100000000,gnss_link,-0.03679156817956392,0.6706591087505167,-0.01730105051743504,0.0,0.0,0.0,0.0025000000000000005,0.0,0.0,0.0,0.0,0.0,0.0,0.0025000000000000005,0.0,0.0,0.0,0.0,0.0,0.0,0.010000000000000002,0.0,0.0,0.0,0.0,0.0,0.0,0.0,0.0,0.0,0.0,0.0,0.0,0.0,0.0,0.0,0.0,0.0,0.0,0.0,0.0,0.0
2026/02/13 16:07:29.930951505,119,200000000,gnss_link,-0.03678349517874891,0.6705119490736711,0.02432709970823503,0.0,0.0,0.0,0.0025000000000000005,0.0,0.0,0.0,0.0,0.0,0.0,0.0025000000000000005,0.0,0.0,0.0,0.0,0.0,0.0,0.010000000000000002,0.0,0.0,0.0,0.0,0.0,0.0,0.0,0.0,0.0,0.0,0.0,0.0,0.0,0.0,0.0,0.0,0.0,0.0,0.0,0.0,0.0
2026/02/13 16:07:30.68933960,119,300000000,gnss_link,-0.03680165811579545,0.6708430341917262,-0.012207236677215802,0.0,0.0,0.0,0.0025000000000000005,0.0,0.0,0.0,0.0,0.0,0.0,0.0025000000000000005,0.0,0.0,0.0,0.0,0.0,0.0,0.010000000000000002,0.0,0.0,0.0,0.0,0.0,0.0,0.0,0.0,0.0,0.0,0.0,0.0,0.0,0.0,0.0,0.0,0.0,0.0,0.0,0.0,0.0
2026/02/13 16:07:30.203108555,119,400000000,gnss_link,-0.03679212824161944,0.6706693178177687,0.01979417308963688,0.0,0.0,0.0,0.0025000000000000005,0.0,0.0,0.0,0.0,0.0,0.0,0.0025000000000000005,0.0,0.0,0.0,0.0,0.0,0.0,0.010000000000000002,0.0,0.0,0.0,0.0,0.0,0.0,0.0,0.0,0.0,0.0,0.0,0.0,0.0,0.0,0.0,0.0,0.0,0.0,0.0,0.0,0.0
2026/02/13 16:07:30.337215960,119,500000000,gnss_link,-0.036804708299042255,0.6708986348127984,-0.009987726408442863,0.0,0.0,0.0,0.0025000000000000005,0.0,0.0,0.0,0.0,0.0,0.0,0.0025000000000000005,0.0,0.0,0.0,0.0,0.0,0.0,0.010000000000000002,0.0,0.0,0.0,0.0,0.0,0.0,0.0,0.0,0.0,0.0,0.0,0.0,0.0,0.0,0.0,0.0,0.0,0.0,0.0,0.0,0.0
2026/02/13 16:07:30.481032565,119,600000000,gnss_link,-0.03675291200774514,0.6699544603588043,0.035776076542074785,0.0,0.0,0.0,0.0025000000000000005,0.0,0.0,0.0,0.0,0.0,0.0,0.0025000000000000005,0.0,0.0,0.0,0.0,0.0,0.0,0.010000000000000002,0.0,0.0,0.0,0.0,0.0,0.0,0.0,0.0,0.0,0.0,0.0,0.0,0.0,0.0,0.0,0.0,0.0,0.0,0.0,0.0,0.0
2026/02/13 16:07:30.608387458,119,700000000,gnss_link,-0.0368063768412915,0.6709290498473065,-0.005174355915739243,0.0,0.0,0.0,0.0025000000000000005,0.0,0.0,0.0,0.0,0.0,0.0,0.0025000000000000005,0.0,0.0,0.0,0.0,0.0,0.0,0.010000000000000002,0.0,0.0,0.0,0.0,0.0,0.0,0.0,0.0,0.0,0.0,0.0,0.0,0.0,0.0,0.0,0.0,0.0,0.0,0.0,0.0,0.0
2026/02/13 16:07:30.745079481,119,800000000,gnss_link,-0.03679138800239366,0.6706558242097082,0.017746004695503963,0.0,0.0,0.0,0.0025000000000000005,0.0,0.0,0.0,0.0,0.0,0.0,0.0025000000000000005,0.0,0.0,0.0,0.0,0.0,0.0,0.010000000000000002,0.0,0.0,0.0,0.0,0.0,0.0,0.0,0.0,0.0,0.0,0.0,0.0,0.0,0.0,0.0,0.0,0.0,0.0,0.0,0.0,0.0
2026/02/13 16:07:30.887660244,119,900000000,gnss_link,-0.03680864622673385,0.6709704176715139,-0.0005883353773820808,0.0,0.0,0.0,0.0025000000000000005,0.0,0.0,0.0,0.0,0.0,0.0,0.0025000000000000005,0.0,0.0,0.0,0.0,0.0,0.0,0.010000000000000002,0.0,0.0,0.0,0.0,0.0,0.0,0.0,0.0,0.0,0.0,0.0,0.0,0.0,0.0,0.0,0.0,0.0,0.0,0.0,0.0,0.0
2026/02/13 16:07:31.44856168,120,0,gnss_link,-0.036757567439876904,0.6700393225378202,-0.053696749154567854,0.0,0.0,0.0,0.0025000000000000005,0.0,0.0,0.0,0.0,0.0,0.0,0.0025000000000000005,0.0,0.0,0.0,0.0,0.0,0.0,0.010000000000000002,0.0,0.0,0.0,0.0,0.0,0.0,0.0,0.0,0.0,0.0,0.0,0.0,0.0,0.0,0.0,0.0,0.0,0.0,0.0,0.0,0.0
2026/02/13 16:07:31.191293920,120,100000000,gnss_link,-0.03680305789675313,0.670868549989554,0.005043633104004756,0.0,0.0,0.0,0.0025000000000000005,0.0,0.0,0.0,0.0,0.0,0.0,0.0025000000000000005,0.0,0.0,0.0,0.0,0.0,0.0,0.010000000000000002,0.0,0.0,0.0,0.0,0.0,0.0,0.0,0.0,0.0,0.0,0.0,0.0,0.0,0.0,0.0,0.0,0.0,0.0,0.0,0.0,0.0
2026/02/13 16:07:31.350991554,120,200000000,gnss_link,-0.0368045853407608,0.6708963931907671,-0.008695224270996131,0.0,0.0,0.0,0.0025000000000000005,0.0,0.0,0.0,0.0,0.0,0.0,0.0025000000000000005,0.0,0.0,0.0,0.0,0.0,0.0,0.010000000000000002,0.0,0.0,0.0,0.0,0.0,0.0,0.0,0.0,0.0,0.0,0.0,0.0,0.0,0.0,0.0,0.0,0.0,0.0,0.0,0.0,0.0
2026/02/13 16:07:31.505180628,120,300000000,gnss_link,-0.03680357612956553,0.6708779967543824,-0.007497651492459142,0.0,0.0,0.0,0.0025000000000000005,0.0,0.0,0.0,0.0,0.0,0.0,0.0025000000000000005,0.0,0.0,0.0,0.0,0.0,0.0,0.010000000000000002,0.0,0.0,0.0,0.0,0.0,0.0,0.0,0.0,0.0,0.0,0.0,0.0,0.0,0.0,0.0,0.0,0.0,0.0,0.0,0.0,0.0
2026/02/13 16:07:31.657341133,120,400000000,gnss_link,-0.03676606324716663,0.6701941891112517,-0.023231625933418407,0.0,0.0,0.0,0.0025000000000000005,0.0,0.0,0.0,0.0,0.0,0.0,0.0025000000000000005,0.0,0.0,0.0,0.0,0.0,0.0,0.010000000000000002,0.0,0.0,0.0,0.0,0.0,0.0,0.0,0.0,0.0,0.0,0.0,0.0,0.0,0.0,0.0,0.0,0.0,0.0,0.0,0.0,0.0
2026/02/13 16:07:31.817091130,120,500000000,gnss_link,-0.03679749710552016,0.6707671844597073,-0.0028608068077731297,0.0,0.0,0.0,0.0025000000000000005,0.0,0.0,0.0,0.0,0.0,0.0,0.0025000000000000005,0.0,0.0,0.0,0.0,0.0,0.0,0.010000000000000002,0.0,0.0,0.0,0.0,0.0,0.0,0.0,0.0,0.0,0.0,0.0,0.0,0.0,0.0,0.0,0.0,0.0,0.0,0.0,0.0,0.0
2026/02/13 16:07:31.973116677,120,600000000,gnss_link,-0.03680924408692832,0.6709813158709864,0.002768401133535494,0.0,0.0,0.0,0.0025000000000000005,0.0,0.0,0.0,0.0,0.0,0.0,0.0025000000000000005,0.0,0.0,0.0,0.0,0.0,0.0,0.010000000000000002,0.0,0.0,0.0,0.0,0.0,0.0,0.0,0.0,0.0,0.0,0.0,0.0,0.0,0.0,0.0,0.0,0.0,0.0,0.0,0.0,0.0
2026/02/13 16:07:32.130101203,120,700000000,gnss_link,-0.036790582044962085,0.6706411329297884,0.001952384114516878,0.0,0.0,0.0,0.0025000000000000005,0.0,0.0,0.0,0.0,0.0,0.0,0.0025000000000000005,0.0,0.0,0.0,0.0,0.0,0.0,0.010000000000000002,0.0,0.0,0.0,0.0,0.0,0.0,0.0,0.0,0.0,0.0,0.0,0.0,0.0,0.0,0.0,0.0,0.0,0.0,0.0,0.0,0.0
2026/02/13 16:07:32.287638358,120,800000000,gnss_link,-0.03679124187146688,0.6706531605753046,-0.021208018586173993,0.0,0.0,0.0,0.0025000000000000005,0.0,0.0,0.0,0.0,0.0,0.0,0.0025000000000000005,0.0,0.0,0.0,0.0,0.0,0.0,0.010000000000000002,0.0,0.0,0.0,0.0,0.0,0.0,0.0,0.0,0.0,0.0,0.0,0.0,0.0,0.0,0.0,0.0,0.0,0.0,0.0,0.0,0.0
2026/02/13 16:07:32.457424655,120,900000000,gnss_link,-0.03678933596023534,0.6706184184273788,0.021933270860562595,0.0,0.0,0.0,0.0025000000000000005,0.0,0.0,0.0,0.0,0.0,0.0,0.0025000000000000005,0.0,0.0,0.0,0.0,0.0,0.0,0.010000000000000002,0.0,0.0,0.0,0.0,0.0,0.0,0.0,0.0,0.0,0.0,0.0,0.0,0.0,0.0,0.0,0.0,0.0,0.0,0.0,0.0,0.0
2026/02/13 16:07:32.626606704,121,0,gnss_link,-0.03680703601836967,0.6709410658683688,-0.0002926600746390707,0.0,0.0,0.0,0.0025000000000000005,0.0,0.0,0.0,0.0,0.0,0.0,0.0025000000000000005,0.0,0.0,0.0,0.0,0.0,0.0,0.010000000000000002,0.0,0.0,0.0,0.0,0.0,0.0,0.0,0.0,0.0,0.0,0.0,0.0,0.0,0.0,0.0,0.0,0.0,0.0,0.0,0.0,0.0
2026/02/13 16:07:32.793138240,121,100000000,gnss_link,-0.036777721636412165,0.670456131439505,0.026707728291822597,0.0,0.0,0.0,0.0025000000000000005,0.0,0.0,0.0,0.0,0.0,0.0,0.0025000000000000005,0.0,0.0,0.0,0.0,0.0,0.0,0.010000000000000002,0.0,0.0,0.0,0.0,0.0,0.0,0.0,0.0,0.0,0.0,0.0,0.0,0.0,0.0,0.0,0.0,0.0,0.0,0.0,0.0,0.0
2026/02/13 16:07:32.957363688,121,200000000,gnss_link,-0.03680355436015475,0.670877559621882,-0.011959450620335082,0.0,0.0,0.0,0.0025000000000000005,0.0,0.0,0.0,0.0,0.0,0.0,0.0025000000000000005,0.0,0.0,0.0,0.0,0.0,0.0,0.010000000000000002,0.0,0.0,0.0,0.0,0.0,0.0,0.0,0.0,0.0,0.0,0.0,0.0,0.0,0.0,0.0,0.0,0.0,0.0,0.0,0.0,0.0
2026/02/13 16:07:33.118483174,121,300000000,gnss_link,-0.03676649099869036,0.670201945827344,0.031792882770544456,0.0,0.0,0.0,0.0025000000000000005,0.0,0.0,0.0,0.0,0.0,0.0,0.0025000000000000005,0.0,0.0,0.0,0.0,0.0,0.0,0.010000000000000002,0.0,0.0,0.0,0.0,0.0,0.0,0.0,0.0,0.0,0.0,0.0,0.0,0.0,0.0,0.0,0.0,0.0,0.0,0.0,0.0,0.0
2026/02/13 16:07:33.283228221,121,400000000,gnss_link,-0.03680385860696407,0.6708831056485421,-0.0036232671558918167,0.0,0.0,0.0,0.0025000000000000005,0.0,0.0,0.0,0.0,0.0,0.0,0.0025000000000000005,0.0,0.0,0.0,0.0,0.0,0.0,0.010000000000000002,0.0,0.0,0.0,0.0,0.0,0.0,0.0,0.0,0.0,0.0,0.0,0.0,0.0,0.0,0.0,0.0,0.0,0.0,0.0,0.0,0.0
2026/02/13 16:07:33.448321044,121,500000000,gnss_link,-0.036764149944094576,0.6701592719769349,0.03307896727822367,0.0,0.0,0.0,0.0025000000000000005,0.0,0.0,0.0,0.0,0.0,0.0,0.0025000000000000005,0.0,0.0,0.0,0.0,0.0,0.0,0.010000000000000002,0.0,0.0,0.0,0.0,0.0,0.0,0.0,0.0,0.0,0.0,0.0,0.0,0.0,0.0,0.0,0.0,0.0,0.0,0.0,0.0,0.0
2026/02/13 16:07:33.606921977,121,600000000,gnss_link,-0.03680956930428271,0.6709872037015643,-0.01845597516094036,0.0,0.0,0.0,0.0025000000000000005,0.0,0.0,0.0,0.0,0.0,0.0,0.0025000000000000005,0.0,0.0,0.0,0.0,0.0,0.0,0.010000000000000002,0.0,0.0,0.0,0.0,0.0,0.0,0.0,0.0,0.0,0.0,0.0,0.0,0.0,0.0,0.0,0.0,0.0,0.0,0.0,0.0,0.0
2026/02/13 16:07:33.765954403,121,700000000,gnss_link,-0.03676401308188254,0.6701567773396393,-0.048461853894706475,0.0,0.0,0.0,0.0025000000000000005,0.0,0.0,0.0,0.0,0.0,0.0,0.0025000000000000005,0.0,0.0,0.0,0.0,0.0,0.0,0.010000000000000002,0.0,0.0,0.0,0.0,0.0,0.0,0.0,0.0,0.0,0.0,0.0,0.0,0.0,0.0,0.0,0.0,0.0,0.0,0.0,0.0,0.0
2026/02/13 16:07:33.916483656,121,800000000,gnss_link,-0.03680366187156686,0.6708795192737719,0.0033814875578132885,0.0,0.0,0.0,0.0025000000000000005,0.0,0.0,0.0,0.0,0.0,0.0,0.0025000000000000005,0.0,0.0,0.0,0.0,0.0,0.0,0.010000000000000002,0.0,0.0,0.0,0.0,0.0,0.0,0.0,0.0,0.0,0.0,0.0,0.0,0.0,0.0,0.0,0.0,0.0,0.0,0.0,0.0,0.0
2026/02/13 16:07:34.75779658,121,900000000,gnss_link,-0.03679030621508008,0.6706360643968721,0.020531381382629138,0.0,0.0,0.0,0.0025000000000000005,0.0,0.0,0.0,0.0,0.0,0.0,0.0025000000000000005,0.0,0.0,0.0,0.0,0.0,0.0,0.010000000000000002,0.0,0.0,0.0,0.0,0.0,0.0,0.0,0.0,0.0,0.0,0.0,0.0,0.0,0.0,0.0,0.0,0.0,0.0,0.0,0.0,0.0
2026/02/13 16:07:34.244381551,122,0,gnss_link,-0.03680100249510007,0.6708310427113414,0.009620714274193969,0.0,0.0,0.0,0.0025000000000000005,0.0,0.0,0.0,0.0,0.0,0.0,0.0025000000000000005,0.0,0.0,0.0,0.0,0.0,0.0,0.010000000000000002,0.0,0.0,0.0,0.0,0.0,0.0,0.0,0.0,0.0,0.0,0.0,0.0,0.0,0.0,0.0,0.0,0.0,0.0,0.0,0.0,0.0
2026/02/13 16:07:34.402722930,122,100000000,gnss_link,-0.03676681029636045,0.6702077665699119,-0.03060680658677855,0.0,0.0,0.0,0.0025000000000000005,0.0,0.0,0.0,0.0,0.0,0.0,0.0025000000000000005,0.0,0.0,0.0,0.0,0.0,0.0,0.010000000000000002,0.0,0.0,0.0,0.0,0.0,0.0,0.0,0.0,0.0,0.0,0.0,0.0,0.0,0.0,0.0,0.0,0.0,0.0,0.0,0.0,0.0
2026/02/13 16:07:34.557942187,122,200000000,gnss_link,-0.036805009793044345,0.6709040900679715,0.010806204059288673,0.0,0.0,0.0,0.0025000000000000005,0.0,0.0,0.0,0.0,0.0,0.0,0.0025000000000000005,0.0,0.0,0.0,0.0,0.0,0.0,0.010000000000000002,0.0,0.0,0.0,0.0,0.0,0.0,0.0,0.0,0.0,0.0,0.0,0.0,0.0,0.0,0.0,0.0,0.0,0.0,0.0,0.0,0.0
2026/02/13 16:07:34.715305136,122,300000000,gnss_link,-0.036801474318792965,0.670839643303948,0.014226019921657262,0.0,0.0,0.0,0.0025000000000000005,0.0,0.0,0.0,0.0,0.0,0.0,0.0025000000000000005,0.0,0.0,0.0,0.0,0.0,0.0,0.010000000000000002,0.0,0.0,0.0,0.0,0.0,0.0,0.0,0.0,0.0,0.0,0.0,0.0,0.0,0.0,0.0,0.0,0.0,0.0,0.0,0.0,0.0
2026/02/13 16:07:34.881769981,122,400000000,gnss_link,-0.037235453819069536,0.6787504855319411,0.01667922918532838,0.0,0.0,0.0,0.0025000000000000005,0.0,0.0,0.0,0.0,0.0,0.0,0.0025000000000000005,0.0,0.0,0.0,0.0,0.0,0.0,0.010000000000000002,0.0,0.0,0.0,0.0,0.0,0.0,0.0,0.0,0.0,0.0,0.0,0.0,0.0,0.0,0.0,0.0,0.0,0.0,0.0,0.0,0.0
2026/02/13 16:07:35.49437238,122,500000000,gnss_link,-0.0439212080952703,0.8006224547948902,0.04331321851198329,0.0,0.0,0.0,0.0025000000000000005,0.0,0.0,0.0,0.0,0.0,0.0,0.0025000000000000005,0.0,0.0,0.0,0.0,0.0,0.0,0.010000000000000002,0.0,0.0,0.0,0.0,0.0,0.0,0.0,0.0,0.0,0.0,0.0,0.0,0.0,0.0,0.0,0.0,0.0,0.0,0.0,0.0,0.0
2026/02/13 16:07:35.207767774,122,600000000,gnss_link,-0.045282848412956336,0.8254432614101791,0.04379005144199424,0.0,0.0,0.0,0.0025000000000000005,0.0,0.0,0.0,0.0,0.0,0.0,0.0025000000000000005,0.0,0.0,0.0,0.0,0.0,0.0,0.010000000000000002,0.0,0.0,0.0,0.0,0.0,0.0,0.0,0.0,0.0,0.0,0.0,0.0,0.0,0.0,0.0,0.0,0.0,0.0,0.0,0.0,0.0
2026/02/13 16:07:35.365059536,122,700000000,gnss_link,-0.04847379292981083,0.8836097397749347,0.0067893897451048015,0.0,0.0,0.0,0.0025000000000000005,0.0,0.0,0.0,0.0,0.0,0.0,0.0025000000000000005,0.0,0.0,0.0,0.0,0.0,0.0,0.010000000000000002,0.0,0.0,0.0,0.0,0.0,0.0,0.0,0.0,0.0,0.0,0.0,0.0,0.0,0.0,0.0,0.0,0.0,0.0,0.0,0.0,0.0
2026/02/13 16:07:35.519133997,122,800000000,gnss_link,-0.04983711631882434,0.9084612270102611,-0.0018254197108099263,0.0,0.0,0.0,0.0025000000000000005,0.0,0.0,0.0,0.0,0.0,0.0,0.0025000000000000005,0.0,0.0,0.0,0.0,0.0,0.0,0.010000000000000002,0.0,0.0,0.0,0.0,0.0,0.0,0.0,0.0,0.0,0.0,0.0,0.0,0.0,0.0,0.0,0.0,0.0,0.0,0.0,0.0,0.0
2026/02/13 16:07:35.680728749,122,900000000,gnss_link,-0.05109937354032183,0.9314703385449975,0.04546158918834298,0.0,0.0,0.0,0.0025000000000000005,0.0,0.0,0.0,0.0,0.0,0.0,0.0025000000000000005,0.0,0.0,0.0,0.0,0.0,0.0,0.010000000000000002,0.0,0.0,0.0,0.0,0.0,0.0,0.0,0.0,0.0,0.0,0.0,0.0,0.0,0.0,0.0,0.0,0.0,0.0,0.0,0.0,0.0
2026/02/13 16:07:35.820063564,123,0,gnss_link,-0.05389779591714673,0.9824816105645439,0.006395175234643035,0.0,0.0,0.0,0.0025000000000000005,0.0,0.0,0.0,0.0,0.0,0.0,0.0025000000000000005,0.0,0.0,0.0,0.0,0.0,0.0,0.010000000000000002,0.0,0.0,0.0,0.0,0.0,0.0,0.0,0.0,0.0,0.0,0.0,0.0,0.0,0.0,0.0,0.0,0.0,0.0,0.0,0.0,0.0
2026/02/13 16:07:35.978755469,123,100000000,gnss_link,-0.05430806458525567,0.989960231653209,0.0316356299520817,0.0,0.0,0.0,0.0025000000000000005,0.0,0.0,0.0,0.0,0.0,0.0,0.0025000000000000005,0.0,0.0,0.0,0.0,0.0,0.0,0.010000000000000002,0.0,0.0,0.0,0.0,0.0,0.0,0.0,0.0,0.0,0.0,0.0,0.0,0.0,0.0,0.0,0.0,0.0,0.0,0.0,0.0,0.0
2026/02/13 16:07:36.127532272,123,200000000,gnss_link,-0.05476302520045006,0.998253573987376,-0.03961468213122731,0.0,0.0,0.0,0.0025000000000000005,0.0,0.0,0.0,0.0,0.0,0.0,0.0025000000000000005,0.0,0.0,0.0,0.0,0.0,0.0,0.010000000000000002,0.0,0.0,0.0,0.0,0.0,0.0,0.0,0.0,0.0,0.0,0.0,0.0,0.0,0.0,0.0,0.0,0.0,0.0,0.0,0.0,0.0
2026/02/13 16:07:36.284909050,123,300000000,gnss_link,-0.05477609815917918,0.9984918392800118,-0.020804668638955446,0.0,0.0,0.0,0.0025000000000000005,0.0,0.0,0.0,0.0,0.0,0.0,0.0025000000000000005,0.0,0.0,0.0,0.0,0.0,0.0,0.010000000000000002,0.0,0.0,0.0,0.0,0.0,0.0,0.0,0.0,0.0,0.0,0.0,0.0,0.0,0.0,0.0,0.0,0.0,0.0,0.0,0.0,0.0
2026/02/13 16:07:36.434427926,123,400000000,gnss_link,-0.05469772221813869,0.9970631556759572,0.05368722380607817,0.0,0.0,0.0,0.0025000000000000005,0.0,0.0,0.0,0.0,0.0,0.0,0.0025000000000000005,0.0,0.0,0.0,0.0,0.0,0.0,0.010000000000000002,0.0,0.0,0.0,0.0,0.0,0.0,0.0,0.0,0.0,0.0,0.0,0.0,0.0,0.0,0.0,0.0,0.0,0.0,0.0,0.0,0.0
2026/02/13 16:07:36.583408392,123,500000000,gnss_link,-0.05474102912527394,0.9978525799007433,-0.03185650074337832,0.0,0.0,0.0,0.0025000000000000005,0.0,0.0,0.0,0.0,0.0,0.0,0.0025000000000000005,0.0,0.0,0.0,0.0,0.0,0.0,0.010000000000000002,0.0,0.0,0.0,0.0,0.0,0.0,0.0,0.0,0.0,0.0,0.0,0.0,0.0,0.0,0.0,0.0,0.0,0.0,0.0,0.0,0.0
2026/02/13 16:07:36.736115025,123,600000000,gnss_link,-0.05476935316679527,0.9983688878278612,-0.003984810672800846,0.0,0.0,0.0,0.0025000000000000005,0.0,0.0,0.0,0.0,0.0,0.0,0.0025000000000000005,0.0,0.0,0.0,0.0,0.0,0.0,0.010000000000000002,0.0,0.0,0.0,0.0,0.0,0.0,0.0,0.0,0.0,0.0,0.0,0.0,0.0,0.0,0.0,0.0,0.0,0.0,0.0,0.0,0.0
2026/02/13 16:07:36.890098095,123,700000000,gnss_link,-0.054679850762346556,0.9967373838653506,0.05677997365804508,0.0,0.0,0.0,0.0025000000000000005,0.0,0.0,0.0,0.0,0.0,0.0,0.0025000000000000005,0.0,0.0,0.0,0.0,0.0,0.0,0.010000000000000002,0.0,0.0,0.0,0.0,0.0,0.0,0.0,0.0,0.0,0.0,0.0,0.0,0.0,0.0,0.0,0.0,0.0,0.0,0.0,0.0,0.0
2026/02/13 16:07:37.45921397,123,800000000,gnss_link,-0.054774462099361446,0.9984620164969126,-0.046602332678816964,0.0,0.0,0.0,0.0025000000000000005,0.0,0.0,0.0,0.0,0.0,0.0,0.0025000000000000005,0.0,0.0,0.0,0.0,0.0,0.0,0.010000000000000002,0.0,0.0,0.0,0.0,0.0,0.0,0.0,0.0,0.0,0.0,0.0,0.0,0.0,0.0,0.0,0.0,0.0,0.0,0.0,0.0,0.0
2026/02/13 16:07:37.213550614,123,900000000,gnss_link,-0.054771705781089745,0.9984117727311004,0.00479467360031292,0.0,0.0,0.0,0.0025000000000000005,0.0,0.0,0.0,0.0,0.0,0.0,0.0025000000000000005,0.0,0.0,0.0,0.0,0.0,0.0,0.010000000000000002,0.0,0.0,0.0,0.0,0.0,0.0,0.0,0.0,0.0,0.0,0.0,0.0,0.0,0.0,0.0,0.0,0.0,0.0,0.0,0.0,0.0
2026/02/13 16:07:37.383172699,124,0,gnss_link,-0.05471530373880954,0.9973836421917821,0.044085254875596544,0.0,0.0,0.0,0.0025000000000000005,0.0,0.0,0.0,0.0,0.0,0.0,0.0025000000000000005,0.0,0.0,0.0,0.0,0.0,0.0,0.010000000000000002,0.0,0.0,0.0,0.0,0.0,0.0,0.0,0.0,0.0,0.0,0.0,0.0,0.0,0.0,0.0,0.0,0.0,0.0,0.0,0.0,0.0
2026/02/13 16:07:37.542490295,124,100000000,gnss_link,-0.054774504803048,0.9984627946403087,0.0007595097568492223,0.0,0.0,0.0,0.0025000000000000005,0.0,0.0,0.0,0.0,0.0,0.0,0.0025000000000000005,0.0,0.0,0.0,0.0,0.0,0.0,0.010000000000000002,0.0,0.0,0.0,0.0,0.0,0.0,0.0,0.0,0.0,0.0,0.0,0.0,0.0,0.0,0.0,0.0,0.0,0.0,0.0,0.0,0.0
2026/02/13 16:07:37.693875129,124,200000000,gnss_link,-0.054774134156990326,0.9984560386433675,-0.00256841007351322,0.0,0.0,0.0,0.0025000000000000005,0.0,0.0,0.0,0.0,0.0,0.0,0.0025000000000000005,0.0,0.0,0.0,0.0,0.0,0.0,0.010000000000000002,0.0,0.0,0.0,0.0,0.0,0.0,0.0,0.0,0.0,0.0,0.0,0.0,0.0,0.0,0.0,0.0,0.0,0.0,0.0,0.0,0.0
2026/02/13 16:07:37.846624071,124,300000000,gnss_link,-0.05473583058710299,0.9977578176367553,0.03664015983157748,0.0,0.0,0.0,0.0025000000000000005,0.0,0.0,0.0,0.0,0.0,0.0,0.0025000000000000005,0.0,0.0,0.0,0.0,0.0,0.0,0.010000000000000002,0.0,0.0,0.0,0.0,0.0,0.0,0.0,0.0,0.0,0.0,0.0,0.0,0.0,0.0,0.0,0.0,0.0,0.0,0.0,0.0,0.0
2026/02/13 16:07:38.1347195,124,400000000,gnss_link,-0.054739690387467524,0.9978281764274767,0.015960363800088268,0.0,0.0,0.0,0.0025000000000000005,0.0,0.0,0.0,0.0,0.0,0.0,0.0025000000000000005,0.0,0.0,0.0,0.0,0.0,0.0,0.010000000000000002,0.0,0.0,0.0,0.0,0.0,0.0,0.0,0.0,0.0,0.0,0.0,0.0,0.0,0.0,0.0,0.0,0.0,0.0,0.0,0.0,0.0
2026/02/13 16:07:38.156241588,124,500000000,gnss_link,-0.054764138610283404,0.9982738367575434,-0.003217457758846346,0.0,0.0,0.0,0.0025000000000000005,0.0,0.0,0.0,0.0,0.0,0.0,0.0025000000000000005,0.0,0.0,0.0,0.0,0.0,0.0,0.010000000000000002,0.0,0.0,0.0,0.0,0.0,0.0,0.0,0.0,0.0,0.0,0.0,0.0,0.0,0.0,0.0,0.0,0.0,0.0,0.0,0.0,0.0
2026/02/13 16:07:38.323233438,124,600000000,gnss_link,-0.05477371732062476,0.9984484401483568,-0.023544961177913094,0.0,0.0,0.0,0.0025000000000000005,0.0,0.0,0.0,0.0,0.0,0.0,0.0025000000000000005,0.0,0.0,0.0,0.0,0.0,0.0,0.010000000000000002,0.0,0.0,0.0,0.0,0.0,0.0,0.0,0.0,0.0,0.0,0.0,0.0,0.0,0.0,0.0,0.0,0.0,0.0,0.0,0.0,0.0
2026/02/13 16:07:38.480543788,124,700000000,gnss_link,-0.054725176020629276,0.997563600305499,-0.05588112724673063,0.0,0.0,0.0,0.0025000000000000005,0.0,0.0,0.0,0.0,0.0,0.0,0.0025000000000000005,0.0,0.0,0.0,0.0,0.0,0.0,0.010000000000000002,0.0,0.0,0.0,0.0,0.0,0.0,0.0,0.0,0.0,0.0,0.0,0.0,0.0,0.0,0.0,0.0,0.0,0.0,0.0,0.0,0.0
2026/02/13 16:07:38.631670059,124,800000000,gnss_link,-0.05476659345769879,0.9983185884610447,-0.011753697662020328,0.0,0.0,0.0,0.0025000000000000005,0.0,0.0,0.0,0.0,0.0,0.0,0.0025000000000000005,0.0,0.0,0.0,0.0,0.0,0.0,0.010000000000000002,0.0,0.0,0.0,0.0,0.0,0.0,0.0,0.0,0.0,0.0,0.0,0.0,0.0,0.0,0.0,0.0,0.0,0.0,0.0,0.0,0.0
2026/02/13 16:07:38.783995428,124,900000000,gnss_link,-0.054768365606429795,0.9983508860446174,0.015459787068543698,0.0,0.0,0.0,0.0025000000000000005,0.0,0.0,0.0,0.0,0.0,0.0,0.0025000000000000005,0.0,0.0,0.0,0.0,0.0,0.0,0.010000000000000002,0.0,0.0,0.0,0.0,0.0,0.0,0.0,0.0,0.0,0.0,0.0,0.0,0.0,0.0,0.0,0.0,0.0,0.0,0.0,0.0,0.0
2026/02/13 16:07:38.934102276,125,0,gnss_link,-0.054715759507032447,0.9973919504055253,-0.06335548359924016,0.0,0.0,0.0,0.0025000000000000005,0.0,0.0,0.0,0.0,0.0,0.0,0.0025000000000000005,0.0,0.0,0.0,0.0,0.0,0.0,0.010000000000000002,0.0,0.0,0.0,0.0,0.0,0.0,0.0,0.0,0.0,0.0,0.0,0.0,0.0,0.0,0.0,0.0,0.0,0.0,0.0,0.0,0.0
2026/02/13 16:07:39.95171757,125,100000000,gnss_link,-0.054768145428142026,0.998346872529661,-0.01590472942953987,0.0,0.0,0.0,0.0025000000000000005,0.0,0.0,0.0,0.0,0.0,0.0,0.0025000000000000005,0.0,0.0,0.0,0.0,0.0,0.0,0.010000000000000002,0.0,0.0,0.0,0.0,0.0,0.0,0.0,0.0,0.0,0.0,0.0,0.0,0.0,0.0,0.0,0.0,0.0,0.0,0.0,0.0,0.0
2026/02/13 16:07:39.247659580,125,200000000,gnss_link,-0.05475948500061536,0.9981890050539423,0.02446845525687025,0.0,0.0,0.0,0.0025000000000000005,0.0,0.0,0.0,0.0,0.0,0.0,0.0025000000000000005,0.0,0.0,0.0,0.0,0.0,0.0,0.010000000000000002,0.0,0.0,0.0,0.0,0.0,0.0,0.0,0.0,0.0,0.0,0.0,0.0,0.0,0.0,0.0,0.0,0.0,0.0,0.0,0.0,0.0
2026/02/13 16:07:39.415493514,125,300000000,gnss_link,-0.05470624346821644,0.9972184863048478,-0.06944899168520247,0.0,0.0,0.0,0.0025000000000000005,0.0,0.0,0.0,0.0,0.0,0.0,0.0025000000000000005,0.0,0.0,0.0,0.0,0.0,0.0,0.010000000000000002,0.0,0.0,0.0,0.0,0.0,0.0,0.0,0.0,0.0,0.0,0.0,0.0,0.0,0.0,0.0,0.0,0.0,0.0,0.0,0.0,0.0
2026/02/13 16:07:39.571471497,125,400000000,gnss_link,-0.05477506211462562,0.9984729540644308,-0.003847364991736834,0.0,0.0,0.0,0.0025000000000000005,0.0,0.0,0.0,0.0,0.0,0.0,0.0025000000000000005,0.0,0.0,0.0,0.0,0.0,0.0,0.010000000000000002,0.0,0.0,0.0,0.0,0.0,0.0,0.0,0.0,0.0,0.0,0.0,0.0,0.0,0.0,0.0,0.0,0.0,0.0,0.0,0.0,0.0
2026/02/13 16:07:39.739365795,125,500000000,gnss_link,-0.05475125696066289,0.9980390192396291,0.025721225608145288,0.0,0.0,0.0,0.0025000000000000005,0.0,0.0,0.0,0.0,0.0,0.0,0.0025000000000000005,0.0,0.0,0.0,0.0,0.0,0.0,0.010000000000000002,0.0,0.0,0.0,0.0,0.0,0.0,0.0,0.0,0.0,0.0,0.0,0.0,0.0,0.0,0.0,0.0,0.0,0.0,0.0,0.0,0.0
2026/02/13 16:07:39.897909313,125,600000000,gnss_link,-0.05472202226825121,0.9975061118816217,-0.04009084503427241,0.0,0.0,0.0,0.0025000000000000005,0.0,0.0,0.0,0.0,0.0,0.0,0.0025000000000000005,0.0,0.0,0.0,0.0,0.0,0.0,0.010000000000000002,0.0,0.0,0.0,0.0,0.0,0.0,0.0,0.0,0.0,0.0,0.0,0.0,0.0,0.0,0.0,0.0,0.0,0.0,0.0,0.0,0.0
2026/02/13 16:07:40.80138074,125,700000000,gnss_link,-0.054762366651068706,0.9982415332784792,0.021626073269731476,0.0,0.0,0.0,0.0025000000000000005,0.0,0.0,0.0,0.0,0.0,0.0,0.0025000000000000005,0.0,0.0,0.0,0.0,0.0,0.0,0.010000000000000002,0.0,0.0,0.0,0.0,0.0,0.0,0.0,0.0,0.0,0.0,0.0,0.0,0.0,0.0,0.0,0.0,0.0,0.0,0.0,0.0,0.0
2026/02/13 16:07:40.289276576,125,800000000,gnss_link,-0.0547564681037966,0.9981340110257321,0.01944052574209233,0.0,0.0,0.0,0.0025000000000000005,0.0,0.0,0.0,0.0,0.0,0.0,0.0025000000000000005,0.0,0.0,0.0,0.0,0.0,0.0,0.010000000000000002,0.0,0.0,0.0,0.0,0.0,0.0,0.0,0.0,0.0,0.0,0.0,0.0,0.0,0.0,0.0,0.0,0.0,0.0,0.0,0.0,0.0
2026/02/13 16:07:40.469661977,125,900000000,gnss_link,-0.038608888258307904,0.7037861414710974,0.014671610552083615,0.0,0.0,0.0,0.0025000000000000005,0.0,0.0,0.0,0.0,0.0,0.0,0.0025000000000000005,0.0,0.0,0.0,0.0,0.0,0.0,0.010000000000000002,0.0,0.0,0.0,0.0,0.0,0.0,0.0,0.0,0.0,0.0,0.0,0.0,0.0,0.0,0.0,0.0,0.0,0.0,0.0,0.0,0.0
2026/02/13 16:07:40.641294698,126,0,gnss_link,-0.029629833233291727,0.5401104204425116,-0.009057858861803506,0.0,0.0,0.0,0.0025000000000000005,0.0,0.0,0.0,0.0,0.0,0.0,0.0025000000000000005,0.0,0.0,0.0,0.0,0.0,0.0,0.010000000000000002,0.0,0.0,0.0,0.0,0.0,0.0,0.0,0.0,0.0,0.0,0.0,0.0,0.0,0.0,0.0,0.0,0.0,0.0,0.0,0.0,0.0
2026/02/13 16:07:40.821194865,126,100000000,gnss_link,-0.026509695073753028,0.4832346517381609,0.004180399358161974,0.0,0.0,0.0,0.0025000000000000005,0.0,0.0,0.0,0.0,0.0,0.0,0.0025000000000000005,0.0,0.0,0.0,0.0,0.0,0.0,0.010000000000000002,0.0,0.0,0.0,0.0,0.0,0.0,0.0,0.0,0.0,0.0,0.0,0.0,0.0,0.0,0.0,0.0,0.0,0.0,0.0,0.0,0.0
2026/02/13 16:07:40.975020869,126,200000000,gnss_link,-0.02649408024260588,0.48295001525830294,0.017689021871323225,0.0,0.0,0.0,0.0025000000000000005,0.0,0.0,0.0,0.0,0.0,0.0,0.0025000000000000005,0.0,0.0,0.0,0.0,0.0,0.0,0.010000000000000002,0.0,0.0,0.0,0.0,0.0,0.0,0.0,0.0,0.0,0.0,0.0,0.0,0.0,0.0,0.0,0.0,0.0,0.0,0.0,0.0,0.0
2026/02/13 16:07:41.138777683,126,300000000,gnss_link,-0.02650809500840209,0.4832054847964965,-0.001883662336408704,0.0,0.0,0.0,0.0025000000000000005,0.0,0.0,0.0,0.0,0.0,0.0,0.0025000000000000005,0.0,0.0,0.0,0.0,0.0,0.0,0.010000000000000002,0.0,0.0,0.0,0.0,0.0,0.0,0.0,0.0,0.0,0.0,0.0,0.0,0.0,0.0,0.0,0.0,0.0,0.0,0.0,0.0,0.0
2026/02/13 16:07:41.306328203,126,400000000,gnss_link,-0.02649527601565767,0.48297181252639276,-0.015304238036411526,0.0,0.0,0.0,0.0025000000000000005,0.0,0.0,0.0,0.0,0.0,0.0,0.0025000000000000005,0.0,0.0,0.0,0.0,0.0,0.0,0.010000000000000002,0.0,0.0,0.0,0.0,0.0,0.0,0.0,0.0,0.0,0.0,0.0,0.0,0.0,0.0,0.0,0.0,0.0,0.0,0.0,0.0,0.0
2026/02/13 16:07:41.467975861,126,500000000,gnss_link,-0.02650905003795212,0.48322289367416843,-0.002277664488260061,0.0,0.0,0.0,0.0025000000000000005,0.0,0.0,0.0,0.0,0.0,0.0,0.0025000000000000005,0.0,0.0,0.0,0.0,0.0,0.0,0.010000000000000002,0.0,0.0,0.0,0.0,0.0,0.0,0.0,0.0,0.0,0.0,0.0,0.0,0.0,0.0,0.0,0.0,0.0,0.0,0.0,0.0,0.0
2026/02/13 16:07:41.628886677,126,600000000,gnss_link,-0.02650595073496462,0.48316643701904116,0.010085926768326602,0.0,0.0,0.0,0.0025000000000000005,0.0,0.0,0.0,0.0,0.0,0.0,0.0025000000000000005,0.0,0.0,0.0,0.0,0.0,0.0,0.010000000000000002,0.0,0.0,0.0,0.0,0.0,0.0,0.0,0.0,0.0,0.0,0.0,0.0,0.0,0.0,0.0,0.0,0.0,0.0,0.0,0.0,0.0
2026/02/13 16:07:41.795989186,126,700000000,gnss_link,-0.026504273080425852,0.48313581648658277,-0.005849160453991185,0.0,0.0,0.0,0.0025000000000000005,0.0,0.0,0.0,0.0,0.0,0.0,0.0025000000000000005,0.0,0.0,0.0,0.0,0.0,0.0,0.010000000000000002,0.0,0.0,0.0,0.0,0.0,0.0,0.0,0.0,0.0,0.0,0.0,0.0,0.0,0.0,0.0,0.0,0.0,0.0,0.0,0.0,0.0
2026/02/13 16:07:41.954699196,126,800000000,gnss_link,-0.026480519798501224,0.4827028273796606,-0.022902135453973228,0.0,0.0,0.0,0.0025000000000000005,0.0,0.0,0.0,0.0,0.0,0.0,0.0025000000000000005,0.0,0.0,0.0,0.0,0.0,0.0,0.010000000000000002,0.0,0.0,0.0,0.0,0.0,0.0,0.0,0.0,0.0,0.0,0.0,0.0,0.0,0.0,0.0,0.0,0.0,0.0,0.0,0.0,0.0
2026/02/13 16:07:42.111362693,126,900000000,gnss_link,-0.0265075515579238,0.4831955784830672,-0.027901070875349137,0.0,0.0,0.0,0.0025000000000000005,0.0,0.0,0.0,0.0,0.0,0.0,0.0025000000000000005,0.0,0.0,0.0,0.0,0.0,0.0,0.010000000000000002,0.0,0.0,0.0,0.0,0.0,0.0,0.0,0.0,0.0,0.0,0.0,0.0,0.0,0.0,0.0,0.0,0.0,0.0,0.0,0.0,0.0
